[
  {
    "시장정보": "북평민속시장",
    "지번 주소": "강원도 동해시 북평동 15-5",
    "도로명 주소": "강원도 동해시 오일장길 32",
    "지리정보": { "latitude": "37.4824942", "longitude": "129.1260015" },
    "시장개설주기": 3,
    "시장유형": "전통시장",
    "시장크기": 3,
    "점포수": 455,
    "시도": "강원",
    "시군구": "동해시"
  },
  {
    "시장정보": "양양전통시장",
    "지번 주소": "강원도 양양군 남문리 57",
    "도로명 주소": "강원도 양양군 양양읍 남문5길 9",
    "지리정보": { "latitude": "38.0750069", "longitude": "128.6232196" },
    "시장개설주기": 3,
    "시장유형": "전통시장",
    "시장크기": 4,
    "점포수": 148,
    "시도": "강원",
    "시군구": "양양군"
  },
  {
    "시장정보": "정선아리랑시장",
    "지번 주소": "강원도 정선군 정선읍 봉양리 349-20",
    "도로명 주소": "강원도 정선군 정선읍 봉양7길 39",
    "지리정보": { "latitude": "37.3803925", "longitude": "128.6652348" },
    "시장개설주기": 3,
    "시장유형": "전통시장",
    "시장크기": 3,
    "점포수": 178,
    "시도": "강원",
    "시군구": "정선군"
  },
  {
    "시장정보": "춘천풍물시장",
    "지번 주소": "강원도 춘천시 온의동 148-1",
    "도로명 주소": "강원도 춘천시 온의동 영서로 2352-48",
    "지리정보": { "latitude": "37.8665801", "longitude": "127.7190705" },
    "시장개설주기": 3,
    "시장유형": "전통시장",
    "시장크기": 4,
    "점포수": 208,
    "시도": "강원",
    "시군구": "춘천시"
  },
  {
    "시장정보": "구천동공구상가",
    "지번 주소": "경기도 수원시 팔달구 구천동 46의 23",
    "도로명 주소": "경기도 수원시 팔달구 매산로 161",
    "지리정보": { "latitude": "37.2734922", "longitude": "127.0178695" },
    "시장개설주기": 1,
    "시장유형": "전통시장",
    "시장크기": 4,
    "점포수": 122,
    "시도": "경기",
    "시군구": "수원시"
  },
  {
    "시장정보": "미나리광시장",
    "지번 주소": "경기도 수원시 팔달구 지동 406",
    "도로명 주소": "경기도 수원시 팔달구 수원천로 266의 4",
    "지리정보": { "latitude": "37.2771724", "longitude": "127.0194858" },
    "시장개설주기": 1,
    "시장유형": "전통시장",
    "시장크기": 4,
    "점포수": 106,
    "시도": "경기",
    "시군구": "수원시"
  },
  {
    "시장정보": "안산시시민시장",
    "지번 주소": "경기도 안산시 단원구 초지동 604-4",
    "도로명 주소": "경기도 안산시 단원구 화랑로 149",
    "지리정보": { "latitude": "37.3251712", "longitude": "126.8053569" },
    "시장개설주기": 3,
    "시장유형": "전통시장",
    "시장크기": 3,
    "점포수": 168,
    "시도": "경기",
    "시군구": "안산시"
  },
  {
    "시장정보": "안양중앙인정시장",
    "지번 주소": "경기도 안양시 만안구 안양동 711-280",
    "도로명 주소": "경기도 안양시 만안구 냉천로185번길 8",
    "지리정보": { "latitude": "37.3964942", "longitude": "126.9195666" },
    "시장개설주기": 1,
    "시장유형": "전통시장",
    "시장크기": 2,
    "점포수": 290,
    "시도": "경기",
    "시군구": "안양시"
  },
  {
    "시장정보": "용인중앙시장",
    "지번 주소": "경기도 용인시 처인구 김량장동 137-1",
    "도로명 주소": "경기도 용인시 처인구 금령로107번길 13",
    "지리정보": { "latitude": "37.2367167", "longitude": "127.2078267" },
    "시장개설주기": 3,
    "시장유형": "전통시장",
    "시장크기": 2,
    "점포수": 109,
    "시도": "경기",
    "시군구": "용인시"
  },
  {
    "시장정보": "의정부제일시장",
    "지번 주소": "경기도 의정부시 의정부동 160",
    "도로명 주소": "경기도 의정부시 태평로 73번길 20",
    "지리정보": { "latitude": "37.7397875", "longitude": "127.0503897" },
    "시장개설주기": 1,
    "시장유형": "전통시장",
    "시장크기": 3,
    "점포수": 244,
    "시도": "경기",
    "시군구": "의정부시"
  },
  {
    "시장정보": "송탄시장",
    "지번 주소": "경기도 평택시 지산동 745-14",
    "도로명 주소": "경기도 평택시 탄현로 346번길24",
    "지리정보": { "latitude": "37.0821115", "longitude": "127.0570855" },
    "시장개설주기": 3,
    "시장유형": "전통시장",
    "시장크기": 3,
    "점포수": 198,
    "시도": "경기",
    "시군구": "평택시"
  },
  {
    "시장정보": "통복시장",
    "지번 주소": "경기도 평택시 신장동 318-24",
    "도로명 주소": "경기도 평택시 동복시장로 25번길 10",
    "지리정보": { "latitude": "37.0798921", "longitude": "127.0523645" },
    "시장개설주기": 3,
    "시장유형": "전통시장",
    "시장크기": 2,
    "점포수": 99,
    "시도": "경기",
    "시군구": "평택시"
  },
  {
    "시장정보": "남양시장",
    "지번 주소": "경기도 화성시 남양리 302-1",
    "도로명 주소": "경기도 화성시 남양읍 글판동길 4",
    "지리정보": { "latitude": "37.2050286", "longitude": "126.8024167" },
    "시장개설주기": 3,
    "시장유형": "전통시장",
    "시장크기": 3,
    "점포수": 99,
    "시도": "경기",
    "시군구": "화성시"
  },
  {
    "시장정보": "발안만세시장",
    "지번 주소": "경기도 화성시 향남읍 평리 81-51",
    "도로명 주소": "경기도 화성시 향남읍 평2길 7",
    "지리정보": { "latitude": "37.1314652", "longitude": "126.9094670" },
    "시장개설주기": 3,
    "시장유형": "전통시장",
    "시장크기": 2,
    "점포수": 100,
    "시도": "경기",
    "시군구": "화성시"
  },
  {
    "시장정보": "사강시장",
    "지번 주소": "경기도 화성시 송산면 사강리 663-1",
    "도로명 주소": "경기도 화성시 송산면 사강로 183-1",
    "지리정보": { "latitude": "37.2132741", "longitude": "126.7364573" },
    "시장개설주기": 3,
    "시장유형": "전통시장",
    "시장크기": 3,
    "점포수": 99,
    "시도": "경기",
    "시군구": "화성시"
  },
  {
    "시장정보": "고성시장",
    "지번 주소": "경상남도 고성군 고성읍 서외리 1-6",
    "도로명 주소": "경상남도 고성군 고성읍 중앙로25번길57",
    "지리정보": { "latitude": "34.9771324", "longitude": "128.3230351" },
    "시장개설주기": 3,
    "시장유형": "전통시장",
    "시장크기": 3,
    "점포수": 99,
    "시도": "경남",
    "시군구": "고성군"
  },
  {
    "시장정보": "곤양종합시장",
    "지번 주소": "경상남도 사천시 곤양면 남문외리 48-4",
    "도로명 주소": "경상남도 사천시 곤양면 남산로 65",
    "지리정보": { "latitude": "35.0566243", "longitude": "127.9632145" },
    "시장개설주기": 2,
    "시장유형": "전통시장",
    "시장크기": 4,
    "점포수": 99,
    "시도": "경남",
    "시군구": "사천시"
  },
  {
    "시장정보": "삼천포종합시장",
    "지번 주소": "경상남도 사천시 동금동88-4",
    "도로명 주소": "경상남도 사천시 새시장길 19",
    "지리정보": { "latitude": "34.9321224", "longitude": "128.0786584" },
    "시장개설주기": 2,
    "시장유형": "전통시장",
    "시장크기": 3,
    "점포수": 296,
    "시도": "경남",
    "시군구": "사천시"
  },
  {
    "시장정보": "완사시장",
    "지번 주소": "경상남도 사천시 정곡리 842",
    "도로명 주소": "경상남도 사천시 완사2길12",
    "지리정보": { "latitude": "35.1311525", "longitude": "127.9763146" },
    "시장개설주기": 3,
    "시장유형": "전통시장",
    "시장크기": 4,
    "점포수": 109,
    "시도": "경남",
    "시군구": "사천시"
  },
  {
    "시장정보": "서창시장",
    "지번 주소": "경상남도 양산시 삼호동 524",
    "도로명 주소": "경상남도 양산시 서창서2길 5",
    "지리정보": { "latitude": "35.4163576", "longitude": "129.1720026" },
    "시장개설주기": 2,
    "시장유형": "전통시장",
    "시장크기": 4,
    "점포수": 198,
    "시도": "경남",
    "시군구": "양산시"
  },
  {
    "시장정보": "자유시장",
    "지번 주소": "경상남도 진주시 상대동 276-9",
    "도로명 주소": "경상남도 진주시 도동천로95",
    "지리정보": { "latitude": "35.1801802", "longitude": "128.1103136" },
    "시장개설주기": 1,
    "시장유형": "전통시장",
    "시장크기": 3,
    "점포수": 90,
    "시도": "경남",
    "시군구": "진주시"
  },
  {
    "시장정보": "진주중앙시장",
    "지번 주소": "경상남도 진주시 대안동 6-11",
    "도로명 주소": "경상남도 진주시 촉석로 202번길4-2",
    "지리정보": { "latitude": "35.1952735", "longitude": "128.0839862" },
    "시장개설주기": 1,
    "시장유형": "전통시장",
    "시장크기": 2,
    "점포수": 233,
    "시도": "경남",
    "시군구": "진주시"
  },
  {
    "시장정보": "경화시장",
    "지번 주소": "경상남도 창원시 진해구 경화동 906",
    "도로명 주소": "경상남도 창원시 진해구 경화로 38번길",
    "지리정보": { "latitude": "35.1570362", "longitude": "128.6904113" },
    "시장개설주기": 3,
    "시장유형": "전통시장",
    "시장크기": 3,
    "점포수": 336,
    "시도": "경남",
    "시군구": "창원시"
  },
  {
    "시장정보": "마산어시장",
    "지번 주소": "경상남도 창원시 마산합포구 동성동 314",
    "도로명 주소": "경상남도 창원시 마산합포구 복요리로 7",
    "지리정보": { "latitude": "35.2037654", "longitude": "128.5789600" },
    "시장개설주기": 1,
    "시장유형": "전통시장",
    "시장크기": 1,
    "점포수": 93,
    "시도": "경남",
    "시군구": "창원시"
  },
  {
    "시장정보": "상남시장",
    "지번 주소": "경상남도 창원시 성산구 상남동 16",
    "도로명 주소": "경상남도 창원시 성산구 마디미로28",
    "지리정보": { "latitude": "35.2222080", "longitude": "128.6833608" },
    "시장개설주기": 3,
    "시장유형": "전통시장",
    "시장크기": 2,
    "점포수": 200,
    "시도": "경남",
    "시군구": "창원시"
  },
  {
    "시장정보": "서호시장",
    "지번 주소": "경상남도 통영시 서호동 163-42",
    "도로명 주소": "경상남도 통영시 새터길 58-9",
    "지리정보": { "latitude": "34.8413615", "longitude": "128.4201033" },
    "시장개설주기": 1,
    "시장유형": "전통시장",
    "시장크기": 3,
    "점포수": 126,
    "시도": "경남",
    "시군구": "통영시"
  },
  {
    "시장정보": "자인공설시장",
    "지번 주소": "경상북도 경산시 자인면 서부리 254",
    "도로명 주소": "경상북도 경산시 자인면 자인로 206-4",
    "지리정보": { "latitude": "35.8164754", "longitude": "128.8229959" },
    "시장개설주기": 3,
    "시장유형": "전통시장",
    "시장크기": 3,
    "점포수": 99,
    "시도": "경북",
    "시군구": "경산시"
  },
  {
    "시장정보": "경주중앙시장",
    "지번 주소": "경상북도 경주시 성건동 339-2",
    "도로명 주소": "경상북도 경주시 금성로 295",
    "지리정보": { "latitude": "35.8440274", "longitude": "129.2063261" },
    "시장개설주기": 3,
    "시장유형": "전통시장",
    "시장크기": 2,
    "점포수": 198,
    "시도": "경북",
    "시군구": "경주시"
  },
  {
    "시장정보": "불국시장",
    "지번 주소": "경상북도 경주시 구정동 429-7",
    "도로명 주소": "경상북도 경주시 불국로 장터길 24",
    "지리정보": { "latitude": "35.7759834", "longitude": "129.3009816" },
    "시장개설주기": 3,
    "시장유형": "전통시장",
    "시장크기": 4,
    "점포수": 178,
    "시도": "경북",
    "시군구": "경주시"
  },
  {
    "시장정보": "안강공설시장",
    "지번 주소": "경상북도 경주시 안강읍 양월리 1350-1",
    "도로명 주소": "경상북도 경주시 안강읍 비화중로 3길 26-3",
    "지리정보": { "latitude": "35.9900129", "longitude": "129.2220917" },
    "시장개설주기": 3,
    "시장유형": "전통시장",
    "시장크기": 3,
    "점포수": 148,
    "시도": "경북",
    "시군구": "경주시"
  },
  {
    "시장정보": "양남시장",
    "지번 주소": "경상북도 경주시 하서리 1502",
    "도로명 주소": "경상북도 경주시 해변공원길 73",
    "지리정보": { "latitude": "35.6752126", "longitude": "129.4638347" },
    "시장개설주기": 3,
    "시장유형": "전통시장",
    "시장크기": 4,
    "점포수": 119,
    "시도": "경북",
    "시군구": "경주시"
  },
  {
    "시장정보": "양북시장",
    "지번 주소": "경상북도 경주시 양북면 어일리 1295-556",
    "도로명 주소": "경상북도 경주시 양북면 감은로 58-30",
    "지리정보": { "latitude": "35.7904176", "longitude": "129.4411902" },
    "시장개설주기": 2,
    "시장유형": "전통시장",
    "시장크기": 4,
    "점포수": 148,
    "시도": "경북",
    "시군구": "경주시"
  },
  {
    "시장정보": "외동시장",
    "지번 주소": "경상북도 경주시 외동읍 입실리 1018-7",
    "도로명 주소": "경상북도 경주시 외동읍 입실시장길 8-6",
    "지리정보": { "latitude": "35.7146280", "longitude": "129.3256858" },
    "시장개설주기": 2,
    "시장유형": "전통시장",
    "시장크기": 4,
    "점포수": 148,
    "시도": "경북",
    "시군구": "경주시"
  },
  {
    "시장정보": "제2경주중심상가시장",
    "지번 주소": "경상북도 경주시 노동동 230",
    "도로명 주소": "경상북도 경주시 원효로 89",
    "지리정보": { "latitude": "35.8421457", "longitude": "129.2106723" },
    "시장개설주기": 3,
    "시장유형": "전통시장",
    "시장크기": 2,
    "점포수": 100,
    "시도": "경북",
    "시군구": "경주시"
  },
  {
    "시장정보": "구미새마을중앙시장",
    "지번 주소": "경상북도 구미시 원평동",
    "도로명 주소": "경상북도 구미시 중앙로9길 11",
    "지리정보": { "latitude": "36.1270552", "longitude": "128.339921" },
    "시장개설주기": 1,
    "시장유형": "전통시장",
    "시장크기": 3,
    "점포수": 102,
    "시도": "경북",
    "시군구": "구미시"
  },
  {
    "시장정보": "선산봉황시장",
    "지번 주소": "경상북도 구미시 선산읍 완전리 253",
    "도로명 주소": "경상북도 구미시 선산읍 단계동길 24",
    "지리정보": { "latitude": "36.2397549", "longitude": "128.3011306" },
    "시장개설주기": 3,
    "시장유형": "전통시장",
    "시장크기": 3,
    "점포수": 593,
    "시도": "경북",
    "시군구": "구미시"
  },
  {
    "시장정보": "평화시장",
    "지번 주소": "경상북도 김천시 평화동 259-1",
    "도로명 주소": "경상북도 김천시 김천로100",
    "지리정보": { "latitude": "36.1237025", "longitude": "128.1129368" },
    "시장개설주기": 3,
    "시장유형": "전통시장",
    "시장크기": 4,
    "점포수": 99,
    "시도": "경북",
    "시군구": "김천시"
  },
  {
    "시장정보": "신흥시장",
    "지번 주소": "경상북도 문경시 흥덕동 794-1",
    "도로명 주소": "경상북도 문경시 신흥시장길 19",
    "지리정보": { "latitude": "36.6012931", "longitude": "128.2042448" },
    "시장개설주기": 3,
    "시장유형": "전통시장",
    "시장크기": 4,
    "점포수": 346,
    "시도": "경북",
    "시군구": "문경시"
  },
  {
    "시장정보": "성주시장",
    "지번 주소": "경상북도 성주군 성주읍 경산리 718-63",
    "도로명 주소": "경상북도 성주군 성주읍 시장길43",
    "지리정보": { "latitude": "35.9144748", "longitude": "128.2851068" },
    "시장개설주기": 3,
    "시장유형": "전통시장",
    "시장크기": 4,
    "점포수": 103,
    "시도": "경북",
    "시군구": "성주군"
  },
  {
    "시장정보": "강구시장",
    "지번 주소": "경상북도 영덕군 강구면 오포리 535",
    "도로명 주소": "경상북도 영덕군 강구면 강구시장1길",
    "지리정보": { "latitude": "36.3579917", "longitude": "129.3804741" },
    "시장개설주기": 3,
    "시장유형": "전통시장",
    "시장크기": 4,
    "점포수": 148,
    "시도": "경북",
    "시군구": "영덕군"
  },
  {
    "시장정보": "영해만세시장",
    "지번 주소": "경상북도 영덕군 영해면 성내리 468-1",
    "도로명 주소": "경상북도 영덕군 영해면 예주시장5길 21",
    "지리정보": { "latitude": "36.5404087", "longitude": "129.4074355" },
    "시장개설주기": 3,
    "시장유형": "전통시장",
    "시장크기": 3,
    "점포수": 376,
    "시도": "경북",
    "시군구": "영덕군"
  },
  {
    "시장정보": "영천공설시장",
    "지번 주소": "경상북도 영천시  완산동 982-3",
    "도로명 주소": "경상북도 영천시 시장4길 52",
    "지리정보": { "latitude": "35.9642157", "longitude": "128.9385221" },
    "시장개설주기": 3,
    "시장유형": "전통시장",
    "시장크기": 3,
    "점포수": 99,
    "시도": "경북",
    "시군구": "영천시"
  },
  {
    "시장정보": "울진시장",
    "지번 주소": "경상북도 울진군 울진읍 읍내리 63",
    "도로명 주소": "경상북도 울진군 울진읍 읍내2길 13-6",
    "지리정보": { "latitude": "36.9913194", "longitude": "129.4020471" },
    "시장개설주기": 3,
    "시장유형": "전통시장",
    "시장크기": 3,
    "점포수": 99,
    "시도": "경북",
    "시군구": "울진군"
  },
  {
    "시장정보": "후포시장",
    "지번 주소": "경상북도 울진군 후포면 삼율리 126",
    "도로명 주소": "경상북도 울진군 후포면 울진대게로21",
    "지리정보": { "latitude": "36.6780294", "longitude": "129.4438049" },
    "시장개설주기": 3,
    "시장유형": "전통시장",
    "시장크기": 4,
    "점포수": 158,
    "시도": "경북",
    "시군구": "울진군"
  },
  {
    "시장정보": "의성공설재래시장",
    "지번 주소": "경상북도 의성군 의성읍 도동리 758-4",
    "도로명 주소": "경상북도 의성군 의성읍 전통시장 1길 12-8",
    "지리정보": { "latitude": "36.3451783", "longitude": "128.7001691" },
    "시장개설주기": 2,
    "시장유형": "전통시장",
    "시장크기": 4,
    "점포수": 99,
    "시도": "경북",
    "시군구": "의성군"
  },
  {
    "시장정보": "죽도시장",
    "지번 주소": "경상북도 포항시 북구 죽도동 2번지일대",
    "도로명 주소": "경상북도 포항시 북구 죽도시장13길 13",
    "지리정보": { "latitude": "36.0357789", "longitude": "129.3669813" },
    "시장개설주기": 1,
    "시장유형": "전통시장",
    "시장크기": 3,
    "점포수": 93,
    "시도": "경북",
    "시군구": "포항시"
  },
  {
    "시장정보": "청하시장",
    "지번 주소": "경상북도 포항시 북구 청하면 미남리 383-7",
    "도로명 주소": "경상북도 포항시 북구 청하면 청하로 200번길 10-1",
    "지리정보": { "latitude": "36.1970266", "longitude": "129.3404126" },
    "시장개설주기": 2,
    "시장유형": "전통시장",
    "시장크기": 4,
    "점포수": 99,
    "시도": "경북",
    "시군구": "포항시"
  },
  {
    "시장정보": "흥해시장",
    "지번 주소": "경상북도 포항시 북구흥해읍  성내리 44-2",
    "도로명 주소": "경상북도 포항시 북구흥해읍 흥해로 74번길6",
    "지리정보": { "latitude": "36.1111391", "longitude": "129.3482504" },
    "시장개설주기": 3,
    "시장유형": "전통시장",
    "시장크기": 3,
    "점포수": 296,
    "시도": "경북",
    "시군구": "포항시"
  },
  {
    "시장정보": "비아5일시장",
    "지번 주소": "광주광역시 광산구 비아동 83-5",
    "도로명 주소": "광주광역시 광산구 중앙로 26-1",
    "지리정보": { "latitude": "35.2212296", "longitude": "126.8252249" },
    "시장개설주기": 2,
    "시장유형": "전통시장",
    "시장크기": 4,
    "점포수": 99,
    "시도": "광주",
    "시군구": "광산구"
  },
  {
    "시장정보": "남광주해뜨는시장",
    "지번 주소": "광주광역시 동구 학동 61-28",
    "도로명 주소": "광주광역시 동구 제봉로 11번길13-6",
    "지리정보": { "latitude": "35.1399220", "longitude": "126.9221639" },
    "시장개설주기": 1,
    "시장유형": "전통시장",
    "시장크기": 4,
    "점포수": 102,
    "시도": "광주",
    "시군구": "동구"
  },
  {
    "시장정보": "현풍공설시장",
    "지번 주소": "대구광역시 달성군  현풍읍 원교리 12-1",
    "도로명 주소": "대구광역시 달성군 현풍읍 비슬로132길 21-1",
    "지리정보": { "latitude": "35.6947417", "longitude": "128.4411812" },
    "시장개설주기": 3,
    "시장유형": "전통시장",
    "시장크기": 4,
    "점포수": 99,
    "시도": "대구",
    "시군구": "달성군"
  },
  {
    "시장정보": "불로전통시장",
    "지번 주소": "대구광역시 동구 불로동 449-1",
    "도로명 주소": "대구광역시 동구 반야월로1길 7",
    "지리정보": { "latitude": "35.9102351", "longitude": "128.6419343" },
    "시장개설주기": 3,
    "시장유형": "전통시장",
    "시장크기": 4,
    "점포수": 99,
    "시도": "대구",
    "시군구": "동구"
  },
  {
    "시장정보": "번개시장",
    "지번 주소": "대구광역시 중구 태평로1가 1-152",
    "도로명 주소": "대구광역시 중구 태평로 177-3\\",
    "지리정보": { "latitude": "35.8750266", "longitude": "128.5981253" },
    "시장개설주기": 1,
    "시장유형": "전통시장",
    "시장크기": 3,
    "점포수": 158,
    "시도": "대구",
    "시군구": "중구"
  },
  {
    "시장정보": "한민시장",
    "지번 주소": "대전광역시 서구 괴정동 88-34",
    "도로명 주소": "대전광역시 서구 도솔로 308번길 27",
    "지리정보": { "latitude": "36.3346149", "longitude": "127.3839819" },
    "시장개설주기": 1,
    "시장유형": "전통시장",
    "시장크기": 3,
    "점포수": 98,
    "시도": "대전",
    "시군구": "서구"
  },
  {
    "시장정보": "기장시장",
    "지번 주소": "부산광역시 기장군 기장읍 대라리 68-5",
    "도로명 주소": "부산광역시 기장군 기장읍 원내로 104번길 16",
    "지리정보": { "latitude": "35.2440266", "longitude": "129.2154428" },
    "시장개설주기": 1,
    "시장유형": "전통시장",
    "시장크기": 3,
    "점포수": 112,
    "시도": "부산",
    "시군구": "기장군"
  },
  {
    "시장정보": "정이있는구포시장",
    "지번 주소": "부산광역시 북구 구포1동 599-15",
    "도로명 주소": "부산광역시 북구 구포시장1길 10",
    "지리정보": { "latitude": "35.2088806", "longitude": "129.0039089" },
    "시장개설주기": 3,
    "시장유형": "전통시장",
    "시장크기": 1,
    "점포수": 104,
    "시도": "부산",
    "시군구": "북구"
  },
  {
    "시장정보": "하단오일상설시장",
    "지번 주소": "부산광역시 사하구 하단 1동 620-8",
    "도로명 주소": "부산광역시 사하구 제석로17번길 1",
    "지리정보": { "latitude": "35.1037079", "longitude": "128.9708044" },
    "시장개설주기": 3,
    "시장유형": "전통시장",
    "시장크기": 3,
    "점포수": 99,
    "시도": "부산",
    "시군구": "사하구"
  },
  {
    "시장정보": "충무동새벽시장",
    "지번 주소": "부산광역시 서구 남부민1동 684",
    "도로명 주소": "부산광역시 서구 해안 새벽장길 68",
    "지리정보": { "latitude": "35.0931790", "longitude": "129.0247532" },
    "시장개설주기": 1,
    "시장유형": "전통시장",
    "시장크기": 3,
    "점포수": 186,
    "시도": "부산",
    "시군구": "서구"
  },
  {
    "시장정보": "창동신창시장",
    "지번 주소": "서울특별시 도봉구 창동 578-47",
    "도로명 주소": "서울특별시 도봉구 덕릉로 57길 17",
    "지리정보": { "latitude": "37.6394390", "longitude": "127.0374712" },
    "시장개설주기": 1,
    "시장유형": "전통시장",
    "시장크기": 4,
    "점포수": 240,
    "시도": "서울",
    "시군구": "도봉구"
  },
  {
    "시장정보": "경동광성상가",
    "지번 주소": "서울특별시 동대문구 제기동 917",
    "도로명 주소": "서울특별시 동대문구 고산자로 464",
    "지리정보": { "latitude": "37.5809170", "longitude": "127.0387791" },
    "시장개설주기": 1,
    "시장유형": "전통시장",
    "시장크기": 4,
    "점포수": 93,
    "시도": "서울",
    "시군구": "동대문구"
  },
  {
    "시장정보": "서울약령시장",
    "지번 주소": "서울특별시 동대문구  제기동 1082",
    "도로명 주소": "서울특별시 동대문구 약령중앙로26",
    "지리정보": { "latitude": "37.5806721", "longitude": "127.0376428" },
    "시장개설주기": 1,
    "시장유형": "전통시장",
    "시장크기": 2,
    "점포수": 150,
    "시도": "서울",
    "시군구": "동대문구"
  },
  {
    "시장정보": "석촌시장",
    "지번 주소": "서울특별시 송파구 석촌동 274-8 2층",
    "도로명 주소": "서울특별시 송파구 송파대로 37길 52  2층",
    "지리정보": { "latitude": "37.5001773", "longitude": "127.1065349" },
    "시장개설주기": 1,
    "시장유형": "전통시장",
    "시장크기": 4,
    "점포수": 93,
    "시도": "서울",
    "시군구": "송파구"
  },
  {
    "시장정보": "광장시장",
    "지번 주소": "서울특별시 종로구 예지동 2-1",
    "도로명 주소": "서울특별시 종로구 창경궁로 88",
    "지리정보": { "latitude": "37.5703015", "longitude": "126.9987116" },
    "시장개설주기": 1,
    "시장유형": "전통시장",
    "시장크기": 1,
    "점포수": 555,
    "시도": "서울",
    "시군구": "종로구"
  },
  {
    "시장정보": "중부시장",
    "지번 주소": "서울특별시 중구 오장동 139-11",
    "도로명 주소": "서울특별시 중구 을지로36길 35(오장동)",
    "지리정보": { "latitude": "37.5649746", "longitude": "127.0018237" },
    "시장개설주기": 1,
    "시장유형": "전통시장",
    "시장크기": 3,
    "점포수": 279,
    "시도": "서울",
    "시군구": "중구"
  },
  {
    "시장정보": "세종전통시장",
    "지번 주소": "세종특별자치시 조치원읍 정리 19-1",
    "도로명 주소": "세종특별자치시 조치원읍 조치원8길 42",
    "지리정보": { "latitude": "36.5997706", "longitude": "127.3005918" },
    "시장개설주기": 3,
    "시장유형": "전통시장",
    "시장크기": 3,
    "점포수": 148,
    "시도": "세종",
    "시군구": "세종시"
  },
  {
    "시장정보": "신정상가시장",
    "지번 주소": "울산광역시 남구 신정동 616-1",
    "도로명 주소": "울산광역시 남구 월평로47번길 15",
    "지리정보": { "latitude": "35.5430040", "longitude": "129.3101138" },
    "시장개설주기": 1,
    "시장유형": "전통시장",
    "시장크기": 3,
    "점포수": 93,
    "시도": "울산",
    "시군구": "남구"
  },
  {
    "시장정보": "호계공설시장",
    "지번 주소": "울산광역시 북구 호계동 869-1 호계공설시장",
    "도로명 주소": "울산광역시 북구 호계3길 17-11",
    "지리정보": { "latitude": "35.6235571", "longitude": "129.3556087" },
    "시장개설주기": 3,
    "시장유형": "전통시장",
    "시장크기": 4,
    "점포수": 296,
    "시도": "울산",
    "시군구": "북구"
  },
  {
    "시장정보": "남창옹기종기시장",
    "지번 주소": "울산광역시 울주군 온양읍 남창리 146 남창옹기종기시장",
    "도로명 주소": "울산광역시 울주군 온양읍 남창장터길 24",
    "지리정보": { "latitude": "35.4162983", "longitude": "129.2828404" },
    "시장개설주기": 3,
    "시장유형": "전통시장",
    "시장크기": 4,
    "점포수": 988,
    "시도": "울산",
    "시군구": "울주군"
  },
  {
    "시장정보": "덕신1차시장",
    "지번 주소": "울산광역시 울주군 온산읍 덕신리 1280-21 덕신종합상설시장",
    "도로명 주소": "울산광역시 울주군 온산읍 덕신리 1280-21",
    "지리정보": { "latitude": "35.4352246", "longitude": "129.3093532" },
    "시장개설주기": 3,
    "시장유형": "전통시장",
    "시장크기": 4,
    "점포수": 99,
    "시도": "울산",
    "시군구": "울주군"
  },
  {
    "시장정보": "덕신2차시장",
    "지번 주소": "울산광역시 울주군 덕신리429",
    "도로명 주소": "울산광역시 울주군 온산읍 신온7길 69",
    "지리정보": { "latitude": "35.4293309", "longitude": "129.3100631" },
    "시장개설주기": 3,
    "시장유형": "전통시장",
    "시장크기": 4,
    "점포수": 178,
    "시도": "울산",
    "시군구": "울주군"
  },
  {
    "시장정보": "덕하시장(덕하공설시장)",
    "지번 주소": "울산광역시 울주군 청량읍 상남리 574-4 덕하시장",
    "도로명 주소": "울산광역시 울주군 청량읍 덕하장터길 9 덕하시장",
    "지리정보": { "latitude": "35.4916970", "longitude": "129.3058941" },
    "시장개설주기": 2,
    "시장유형": "전통시장",
    "시장크기": 4,
    "점포수": 119,
    "시도": "울산",
    "시군구": "울주군"
  },
  {
    "시장정보": "언양공설시장",
    "지번 주소": "울산광역시 울주군 언양읍 남부리 336-20 언양공설시장",
    "도로명 주소": "울산광역시 울주군 언양읍 남부리 336-20 언양공설시장",
    "지리정보": { "latitude": "35.5628849", "longitude": "129.1257841" },
    "시장개설주기": 2,
    "시장유형": "전통시장",
    "시장크기": 4,
    "점포수": 247,
    "시도": "울산",
    "시군구": "울주군"
  },
  {
    "시장정보": "구역전시장",
    "지번 주소": "울산광역시 중구 학성동 432-438",
    "도로명 주소": "울산광역시 중구 구역전길 24-2(학성동)",
    "지리정보": { "latitude": "35.5572839", "longitude": "129.3284075" },
    "시장개설주기": 1,
    "시장유형": "전통시장",
    "시장크기": 4,
    "점포수": 113,
    "시도": "울산",
    "시군구": "중구"
  },
  {
    "시장정보": "마량5일시장",
    "지번 주소": "전라남도 강진군 마량면 마량리 1000-3",
    "도로명 주소": "전라남도 강진군 마량면 마량공단길 27-3",
    "지리정보": { "latitude": "34.4543755", "longitude": "126.8138601" },
    "시장개설주기": 2,
    "시장유형": "전통시장",
    "시장크기": 4,
    "점포수": 109,
    "시도": "전남",
    "시군구": "강진군"
  },
  {
    "시장정보": "병영5일시장",
    "지번 주소": "전라남도 강진군 병영면 삼인리 318",
    "도로명 주소": "전라남도 강진군 병영면 남삼인길 6",
    "지리정보": { "latitude": "34.7137542", "longitude": "126.8156663" },
    "시장개설주기": 2,
    "시장유형": "전통시장",
    "시장크기": 4,
    "점포수": 148,
    "시도": "전남",
    "시군구": "강진군"
  },
  {
    "시장정보": "동강전통시장",
    "지번 주소": "전라남도 고흥군 동강면 유둔리 7-2",
    "도로명 주소": "전라남도 고흥군 원유둔4길 13-1",
    "지리정보": { "latitude": "34.7802679", "longitude": "127.3345057" },
    "시장개설주기": 2,
    "시장유형": "전통시장",
    "시장크기": 4,
    "점포수": 99,
    "시도": "전남",
    "시군구": "고흥군"
  },
  {
    "시장정보": "광양5일시장",
    "지번 주소": "전라남도 광양시 광양읍 목성리 696-3",
    "도로명 주소": "전라남도 광양시 광양읍 백운로 3",
    "지리정보": { "latitude": "34.9712327", "longitude": "127.5902530" },
    "시장개설주기": 2,
    "시장유형": "전통시장",
    "시장크기": 4,
    "점포수": 296,
    "시도": "전남",
    "시군구": "광양시"
  },
  {
    "시장정보": "옥곡5일시장",
    "지번 주소": "전라남도 광양시 옥곡면 신금리 1337-1",
    "도로명 주소": "전라남도 광양시 옥곡면 큰골1길 2-26",
    "지리정보": { "latitude": "34.9883708", "longitude": "127.7004974" },
    "시장개설주기": 2,
    "시장유형": "전통시장",
    "시장크기": 4,
    "점포수": 148,
    "시도": "전남",
    "시군구": "광양시"
  },
  {
    "시장정보": "구례5일시장",
    "지번 주소": "전라남도 구례군 구례읍 봉동리 190-1",
    "도로명 주소": "전라남도 구례군 구례읍 5일시장작은길 20",
    "지리정보": { "latitude": "35.2107746", "longitude": "127.4698787" },
    "시장개설주기": 2,
    "시장유형": "전통시장",
    "시장크기": 3,
    "점포수": 99,
    "시도": "전남",
    "시군구": "구례군"
  },
  {
    "시장정보": "나주목사고을시장",
    "지번 주소": "전라남도 나주시 삼도동 1388-2",
    "도로명 주소": "전라남도 나주시 청동길 14",
    "지리정보": { "latitude": "35.0370924", "longitude": "126.7237578" },
    "시장개설주기": 3,
    "시장유형": "전통시장",
    "시장크기": 3,
    "점포수": 99,
    "시도": "전남",
    "시군구": "나주시"
  },
  {
    "시장정보": "담양시장",
    "지번 주소": "전라남도 담양군 담양읍 담주리 7",
    "도로명 주소": "전라남도 담양군 담양읍 담주4길 40",
    "지리정보": { "latitude": "35.3229319", "longitude": "126.9806208" },
    "시장개설주기": 2,
    "시장유형": "전통시장",
    "시장크기": 4,
    "점포수": 99,
    "시도": "전남",
    "시군구": "담양군"
  },
  {
    "시장정보": "무안전통시장",
    "지번 주소": "전라남도 무안군 무안읍 성내리 21-6",
    "도로명 주소": "전라남도 무안군 무안읍 승달로 11",
    "지리정보": { "latitude": "34.9933227", "longitude": "126.4732499" },
    "시장개설주기": 3,
    "시장유형": "전통시장",
    "시장크기": 4,
    "점포수": 178,
    "시도": "전남",
    "시군구": "무안군"
  },
  {
    "시장정보": "녹차골보성향토시장(보성읍5일시장)",
    "지번 주소": "전라남도 보성군 보성읍 원봉리 2-1",
    "도로명 주소": "전라남도 보성군 보성읍 현충로 42-1",
    "지리정보": { "latitude": "34.7650210", "longitude": "127.0777010" },
    "시장개설주기": 2,
    "시장유형": "전통시장",
    "시장크기": 4,
    "점포수": 165,
    "시도": "전남",
    "시군구": "보성군"
  },
  {
    "시장정보": "벌교5일시장",
    "지번 주소": "전라남도 보성군 벌교읍 회정리 663-23",
    "도로명 주소": "전라남도 보성군 벌교읍 시장1길 10",
    "지리정보": { "latitude": "34.8447992", "longitude": "127.3449899" },
    "시장개설주기": 2,
    "시장유형": "전통시장",
    "시장크기": 4,
    "점포수": 99,
    "시도": "전남",
    "시군구": "보성군"
  },
  {
    "시장정보": "순천시아랫장(순천아랫장)",
    "지번 주소": "전라남도 순천시 풍덕동 1264",
    "도로명 주소": "전라남도 순천시 장평로 60",
    "지리정보": { "latitude": "34.9453204", "longitude": "127.4953718" },
    "시장개설주기": 2,
    "시장유형": "전통시장",
    "시장크기": 3,
    "점포수": 790,
    "시도": "전남",
    "시군구": "순천시"
  },
  {
    "시장정보": "역전시장",
    "지번 주소": "전라남도 순천시 덕암동 227-1",
    "도로명 주소": "전라남도 순천시 역전장길 9",
    "지리정보": { "latitude": "34.9438210", "longitude": "127.5035021" },
    "시장개설주기": 1,
    "시장유형": "전통시장",
    "시장크기": 3,
    "점포수": 186,
    "시도": "전남",
    "시군구": "순천시"
  },
  {
    "시장정보": "웃장",
    "지번 주소": "전라남도 순천시 동외동 168-1",
    "도로명 주소": "전라남도 순천시 북문길 40",
    "지리정보": { "latitude": "34.9588094", "longitude": "127.4851996" },
    "시장개설주기": 3,
    "시장유형": "전통시장",
    "시장크기": 3,
    "점포수": 296,
    "시도": "전남",
    "시군구": "순천시"
  },
  {
    "시장정보": "교동시장",
    "지번 주소": "전라남도 여수시 교동 606-1",
    "도로명 주소": "전라남도 여수시 교동시장1길 15-10",
    "지리정보": { "latitude": "34.7391285", "longitude": "127.7301866" },
    "시장개설주기": 1,
    "시장유형": "전통시장",
    "시장크기": 4,
    "점포수": 186,
    "시도": "전남",
    "시군구": "여수시"
  },
  {
    "시장정보": "여수서시장주변시장",
    "지번 주소": "전라남도 여수시 서교동 534-20",
    "도로명 주소": "전라남도 여수시 서교2길 2-7",
    "지리정보": { "latitude": "34.7409549", "longitude": "127.7285855" },
    "시장개설주기": 3,
    "시장유형": "전통시장",
    "시장크기": 3,
    "점포수": 302,
    "시도": "전남",
    "시군구": "여수시"
  },
  {
    "시장정보": "영광고추특화시장",
    "지번 주소": "전라남도 영광군 영광읍 신하리 324-3",
    "도로명 주소": "전라남도 영광군 영광읍 신남로 100-25",
    "지리정보": { "latitude": "35.2745375", "longitude": "126.4940751" },
    "시장개설주기": 2,
    "시장유형": "전통시장",
    "시장크기": 4,
    "점포수": 99,
    "시도": "전남",
    "시군구": "영광군"
  },
  {
    "시장정보": "구림5일시장",
    "지번 주소": "전라남도 영암군 군서면 동구림리 34-7",
    "도로명 주소": "전라남도 영암군 군서면 도갑사로 31-13",
    "지리정보": { "latitude": "34.7624969", "longitude": "126.6348605" },
    "시장개설주기": 2,
    "시장유형": "전통시장",
    "시장크기": 4,
    "점포수": 137,
    "시도": "전남",
    "시군구": "영암군"
  },
  {
    "시장정보": "독천5일시장",
    "지번 주소": "전라남도 영암군 미암면 채지리 138",
    "도로명 주소": "전라남도 영암군 미암면 독천1길 19",
    "지리정보": { "latitude": "34.7244806", "longitude": "126.5673131" },
    "시장개설주기": 2,
    "시장유형": "전통시장",
    "시장크기": 4,
    "점포수": 247,
    "시도": "전남",
    "시군구": "영암군"
  },
  {
    "시장정보": "시종시장",
    "지번 주소": "전라남도 영암군 시종면 만수리 937-9",
    "도로명 주소": "전라남도 영암군 시종면 내동중앙로 26",
    "지리정보": { "latitude": "34.8674678", "longitude": "126.6082202" },
    "시장개설주기": 2,
    "시장유형": "전통시장",
    "시장크기": 4,
    "점포수": 119,
    "시도": "전남",
    "시군구": "영암군"
  },
  {
    "시장정보": "신북5일시장",
    "지번 주소": "전라남도 영암군 신북면 월평리 126-3",
    "도로명 주소": "전라남도 영암군 신북면 황금동로 78",
    "지리정보": { "latitude": "34.8884346", "longitude": "126.6925220" },
    "시장개설주기": 2,
    "시장유형": "전통시장",
    "시장크기": 4,
    "점포수": 119,
    "시도": "전남",
    "시군구": "영암군"
  },
  {
    "시장정보": "완도읍5일시장",
    "지번 주소": "전라남도 완도군 완도읍 군내리 1249-2",
    "도로명 주소": "전라남도 완도군 완도읍 개포로 34-1",
    "지리정보": { "latitude": "34.3160717", "longitude": "126.7481095" },
    "시장개설주기": 2,
    "시장유형": "전통시장",
    "시장크기": 4,
    "점포수": 294,
    "시도": "전남",
    "시군구": "완도군"
  },
  {
    "시장정보": "완도중앙시장",
    "지번 주소": "전라남도 완도군 완도읍 군내리 1371",
    "도로명 주소": "전라남도 완도군 완도읍 장보고대로 282-1",
    "지리정보": { "latitude": "34.3144053", "longitude": "126.7551785" },
    "시장개설주기": 3,
    "시장유형": "전통시장",
    "시장크기": 3,
    "점포수": 148,
    "시도": "전남",
    "시군구": "완도군"
  },
  {
    "시장정보": "정남진장흥토요시장",
    "지번 주소": "전라남도 장흥군 장흥읍 예양리 158-2",
    "도로명 주소": "전라남도 장흥군 장흥읍 토요시장1길 53",
    "지리정보": { "latitude": "34.6774240", "longitude": "126.9031720" },
    "시장개설주기": 3,
    "시장유형": "전통시장",
    "시장크기": 3,
    "점포수": 494,
    "시도": "전남",
    "시군구": "장흥군"
  },
  {
    "시장정보": "천관산관광시장",
    "지번 주소": "전라남도 장흥군 관산읍 옥당리 489-1",
    "도로명 주소": "전라남도 장흥군 관산읍 칠관로 1559-4",
    "지리정보": { "latitude": "34.5629333", "longitude": "126.9372241" },
    "시장개설주기": 2,
    "시장유형": "전통시장",
    "시장크기": 4,
    "점포수": 99,
    "시도": "전남",
    "시군구": "장흥군"
  },
  {
    "시장정보": "진도읍조금시장",
    "지번 주소": "전라남도 진도군 진도읍 남동리 732-23",
    "도로명 주소": "전라남도 진도군 진도읍 조금시장길 28",
    "지리정보": { "latitude": "34.4811099", "longitude": "126.2577617" },
    "시장개설주기": 2,
    "시장유형": "전통시장",
    "시장크기": 4,
    "점포수": 148,
    "시도": "전남",
    "시군구": "진도군"
  },
  {
    "시장정보": "우수영5일시장",
    "지번 주소": "전라남도 목포시 고하대로 706",
    "도로명 주소": "전라남도 해남군 문내면 동외리 919-17",
    "지리정보": { "latitude": "34.8093787", "longitude": "126.3742394" },
    "시장개설주기": 2,
    "시장유형": "전통시장",
    "시장크기": 4,
    "점포수": 99,
    "시도": "전남",
    "시군구": "해남군"
  },
  {
    "시장정보": "해남읍5일시장",
    "지번 주소": "전라남도 해남군 해남읍 고도리 102-4",
    "도로명 주소": "전라남도 해남군 해남읍 중앙2로 76",
    "지리정보": { "latitude": "34.5688902", "longitude": "126.5971145" },
    "시장개설주기": 2,
    "시장유형": "전통시장",
    "시장크기": 3,
    "점포수": 148,
    "시도": "전남",
    "시군구": "해남군"
  },
  {
    "시장정보": "화순전통시장(화순읍전통시장)",
    "지번 주소": "전라남도 화순군 화순읍 삼천리 621",
    "도로명 주소": "전라남도 화순군 화순읍 시장길 42",
    "지리정보": { "latitude": "35.0593624", "longitude": "126.9836478" },
    "시장개설주기": 2,
    "시장유형": "전통시장",
    "시장크기": 4,
    "점포수": 198,
    "시도": "전남",
    "시군구": "화순군"
  },
  {
    "시장정보": "대야재래시장",
    "지번 주소": "전라북도 군산시 대야면 산월리 401-1",
    "도로명 주소": "전라북도 군산시 대야면 대야시장로 7-1",
    "지리정보": { "latitude": "35.9448977", "longitude": "126.8165898" },
    "시장개설주기": 2,
    "시장유형": "전통시장",
    "시장크기": 4,
    "점포수": 148,
    "시도": "전북",
    "시군구": "군산시"
  },
  {
    "시장정보": "남원인월시장",
    "지번 주소": "전라북도 남원시 인월면 인월리 252",
    "도로명 주소": "전라북도 남원시 인월면 인월로 65-3",
    "지리정보": { "latitude": "35.4613780", "longitude": "127.6020033" },
    "시장개설주기": 2,
    "시장유형": "전통시장",
    "시장크기": 4,
    "점포수": 99,
    "시도": "전북",
    "시군구": "남원시"
  },
  {
    "시장정보": "무주시장(반딧불장터)",
    "지번 주소": "전라북도 무주군 무주읍 읍내리 1152",
    "도로명 주소": "전라북도 무주군 무주읍 장터로 2",
    "지리정보": { "latitude": "36.0047025", "longitude": "127.6541056" },
    "시장개설주기": 2,
    "시장유형": "전통시장",
    "시장크기": 4,
    "점포수": 119,
    "시도": "전북",
    "시군구": "무주군"
  },
  {
    "시장정보": "익산장(익산북부장)",
    "지번 주소": "전라북도 익산시 남중동 35-9",
    "도로명 주소": "전라북도 익산시 인북로 11길 27",
    "지리정보": { "latitude": "35.9512330", "longitude": "126.9567754" },
    "시장개설주기": 3,
    "시장유형": "전통시장",
    "시장크기": 3,
    "점포수": 99,
    "시도": "전북",
    "시군구": "익산시"
  },
  {
    "시장정보": "전주남부시장",
    "지번 주소": "전라북도 전주시 완산구 전동 296-1",
    "도로명 주소": "전라북도 전주시 완산구 풍남문1길 19",
    "지리정보": { "latitude": "35.8129567", "longitude": "127.1478047" },
    "시장개설주기": 1,
    "시장유형": "전통시장",
    "시장크기": 3,
    "점포수": 167,
    "시도": "전북",
    "시군구": "전주시"
  },
  {
    "시장정보": "제주시민속오일시장",
    "지번 주소": "제주특별자치도 제주시 도두1동 1212",
    "도로명 주소": "제주특별자치도 제주시 오일장서길 26",
    "지리정보": { "latitude": "33.4965660", "longitude": "126.4745766" },
    "시장개설주기": 3,
    "시장유형": "전통시장",
    "시장크기": 1,
    "점포수": 300,
    "시도": "제주",
    "시군구": "제주시"
  },
  {
    "시장정보": "공주산성시장",
    "지번 주소": "충청남도 공주시 산성동 190-1",
    "도로명 주소": "충청남도 공주시 용당길 22",
    "지리정보": { "latitude": "36.4590854", "longitude": "127.1227598" },
    "시장개설주기": 3,
    "시장유형": "전통시장",
    "시장크기": 2,
    "점포수": 99,
    "시도": "충남",
    "시군구": "공주시"
  },
  {
    "시장정보": "웅천시장",
    "지번 주소": "충청남도 보령시 웅천읍 대창리 434-3",
    "도로명 주소": "충청남도 보령시 웅천읍 장터중앙길 118",
    "지리정보": { "latitude": "36.2328118", "longitude": "126.6001874" },
    "시장개설주기": 3,
    "시장유형": "전통시장",
    "시장크기": 3,
    "점포수": 99,
    "시도": "충남",
    "시군구": "보령시"
  },
  {
    "시장정보": "부여5일시장",
    "지번 주소": "충청남도 부여군 부여읍 구아리 432",
    "도로명 주소": "충청남도 부여군 부여읍 성왕로 173번길 12",
    "지리정보": { "latitude": "36.2818728", "longitude": "126.9070155" },
    "시장개설주기": 3,
    "시장유형": "전통시장",
    "시장크기": 4,
    "점포수": 198,
    "시도": "충남",
    "시군구": "부여군"
  },
  {
    "시장정보": "서산동부전통시장(동부시장)",
    "지번 주소": "충청남도 서산시 동문동 900-3",
    "도로명 주소": "충청남도 서산시 시장5로 15",
    "지리정보": { "latitude": "36.7819352", "longitude": "126.4561472" },
    "시장개설주기": 1,
    "시장유형": "전통시장",
    "시장크기": 3,
    "점포수": 208,
    "시도": "충남",
    "시군구": "서산시"
  },
  {
    "시장정보": "장항전통시장",
    "지번 주소": "충청남도 서천군 장항읍 신창리 110",
    "도로명 주소": "충청남도 서천군 장항읍 성화로 104",
    "지리정보": { "latitude": "36.0156816", "longitude": "126.6942500" },
    "시장개설주기": 3,
    "시장유형": "전통시장",
    "시장크기": 4,
    "점포수": 99,
    "시도": "충남",
    "시군구": "서천군"
  },
  {
    "시장정보": "남산중앙시장",
    "지번 주소": "충청남도 천안시 동남구 사직동 202-15",
    "도로명 주소": "충청남도 천안시 동남구 사직로 7",
    "지리정보": { "latitude": "36.8007417", "longitude": "127.1492696" },
    "시장개설주기": 3,
    "시장유형": "전통시장",
    "시장크기": 3,
    "점포수": 119,
    "시도": "충남",
    "시군구": "천안시"
  },
  {
    "시장정보": "병천시장",
    "지번 주소": "충청남도 천안시 동남구 병천면 병천리 163-2",
    "도로명 주소": "충청남도 천안시 동남구 병천면 아우내장터1길 46",
    "지리정보": { "latitude": "36.7622009", "longitude": "127.2980418" },
    "시장개설주기": 3,
    "시장유형": "전통시장",
    "시장크기": 3,
    "점포수": 119,
    "시도": "충남",
    "시군구": "천안시"
  },
  {
    "시장정보": "성환이화시장",
    "지번 주소": "충청남도 천안시 서북구 성환읍 성환리 348-3",
    "도로명 주소": "충청남도 천안시 서북구 성환읍 성환중앙로 50",
    "지리정보": { "latitude": "36.9180941", "longitude": "127.1308865" },
    "시장개설주기": 3,
    "시장유형": "전통시장",
    "시장크기": 4,
    "점포수": 128,
    "시도": "충남",
    "시군구": "천안시"
  },
  {
    "시장정보": "청양전통시장",
    "지번 주소": "충청남도 청양군 읍내리 178-4",
    "도로명 주소": "충청남도 청양군 칠갑산로6길 6",
    "지리정보": { "latitude": "36.4505179", "longitude": "126.8019030" },
    "시장개설주기": 3,
    "시장유형": "전통시장",
    "시장크기": 3,
    "점포수": 247,
    "시도": "충남",
    "시군구": "청양군"
  },
  {
    "시장정보": "갈산정기시장",
    "지번 주소": "충청남도 홍성군 갈산면 상촌리 240-16",
    "도로명 주소": "충청남도 홍성군 갈산면 상촌로 29",
    "지리정보": { "latitude": "36.6037402", "longitude": "126.5505501" },
    "시장개설주기": 3,
    "시장유형": "전통시장",
    "시장크기": 4,
    "점포수": 99,
    "시도": "충남",
    "시군구": "홍성군"
  },
  {
    "시장정보": "광천전통시장",
    "지번 주소": "충청남도 홍성군 광천읍 광천리 230-32",
    "도로명 주소": "충청남도 홍성군 광천읍 광천로 285",
    "지리정보": { "latitude": "36.4998501", "longitude": "126.6252541" },
    "시장개설주기": 3,
    "시장유형": "전통시장",
    "시장크기": 3,
    "점포수": 158,
    "시도": "충남",
    "시군구": "홍성군"
  },
  {
    "시장정보": "홍성전통시장",
    "지번 주소": "충청남도 홍성군 홍성읍 대교리 400-1",
    "도로명 주소": "충청남도 홍성군 홍성읍 홍성천길 242",
    "지리정보": { "latitude": "36.6021500", "longitude": "126.6681690" },
    "시장개설주기": 3,
    "시장유형": "전통시장",
    "시장크기": 3,
    "점포수": 350,
    "시도": "충남",
    "시군구": "홍성군"
  },
  {
    "시장정보": "괴산전통시장",
    "지번 주소": "충청북도 괴산군 괴산읍 동부리 560-1",
    "도로명 주소": "충청북도 괴산군 괴산읍 읍내로 15길8-8",
    "지리정보": { "latitude": "36.8111817", "longitude": "127.7949745" },
    "시장개설주기": 3,
    "시장유형": "전통시장",
    "시장크기": 3,
    "점포수": 120,
    "시도": "충북",
    "시군구": "괴산군"
  },
  {
    "시장정보": "단양구경시장(단양인정시장)",
    "지번 주소": "충청북도 단양군 단양읍 도전리 615",
    "도로명 주소": "충청북도 단양군 단양읍 도전5길 31",
    "지리정보": { "latitude": "36.9825116", "longitude": "128.3699310" },
    "시장개설주기": 3,
    "시장유형": "전통시장",
    "시장크기": 3,
    "점포수": 148,
    "시도": "충북",
    "시군구": "단양군"
  },
  {
    "시장정보": "음성무극시장",
    "지번 주소": "충청북도 음성군 금왕읍 무극리 77-17",
    "도로명 주소": "충청북도 음성군 금왕읍 무극로 308번길 12- 12",
    "지리정보": { "latitude": "36.9926958", "longitude": "127.5959754" },
    "시장개설주기": 3,
    "시장유형": "전통시장",
    "시장크기": 3,
    "점포수": 107,
    "시도": "충북",
    "시군구": "음성군"
  },
  {
    "시장정보": "제천역전한마음시장",
    "지번 주소": "충청북도 제천시 화산동 207-3",
    "도로명 주소": "충청북도 제천시 내토로 28길 3-1",
    "지리정보": { "latitude": "37.1294487", "longitude": "128.2069551" },
    "시장개설주기": 1,
    "시장유형": "전통시장",
    "시장크기": 3,
    "점포수": 93,
    "시도": "충북",
    "시군구": "제천시"
  },
  {
    "시장정보": "운수대통! 생거진천전통시장",
    "지번 주소": "충청북도 진천군 성석리 629",
    "도로명 주소": "충청북도 진천군 진천읍 원덕로390",
    "지리정보": { "latitude": "36.8607080", "longitude": "127.4513242" },
    "시장개설주기": 3,
    "시장유형": "전통시장",
    "시장크기": 4,
    "점포수": 346,
    "시도": "충북",
    "시군구": "진천군"
  },
  {
    "시장정보": "육거리종합시장",
    "지번 주소": "충청북도 청주시 상당구 석교동 60-4",
    "도로명 주소": "충청북도 청주시 상당구  청남로2197번길 42",
    "지리정보": { "latitude": "36.6279082", "longitude": "127.4884768" },
    "시장개설주기": 3,
    "시장유형": "전통시장",
    "시장크기": 3,
    "점포수": 780,
    "시도": "충북",
    "시군구": "청주시"
  }
]
