[
    {
        "주소": "서울특별시 강남구 신사동 510-11",
        "지리정보": {
            "latitude": "37.5187768",
            "longitude": "127.0206947"
        },
        "시장정보": "강남시장"
    },
    {
        "주소": "서울특별시 강남구 압구정동 454",
        "지리정보": {
            "latitude": "37.5322917",
            "longitude": "127.0284177"
        },
        "시장정보": "신사상가"
    },
    {
        "주소": "서울특별시 강남구 논현동 140",
        "지리정보": {
            "latitude": "37.5099472",
            "longitude": "127.0236926"
        },
        "시장정보": "영동전통시장"
    },
    {
        "주소": "서울특별시 강남구 청담동 134-20",
        "지리정보": {
            "latitude": "37.5223088",
            "longitude": "127.0577511"
        },
        "시장정보": "청담삼익시장"
    },
    {
        "주소": "서울특별시 강동구 천호동 393-32",
        "지리정보": {
            "latitude": "37.5425145",
            "longitude": "127.1319593"
        },
        "시장정보": "고분다리전통시장"
    },
    {
        "주소": "서울특별시 강동구 천호대로193길 37",
        "지리정보": {
            "latitude": "37.5370211",
            "longitude": "127.1437013"
        },
        "시장정보": "길동복조리시장"
    },
    {
        "주소": "서울특별시 강동구 성내동 416-12",
        "지리정보": {
            "latitude": "37.5280845",
            "longitude": "127.1350026"
        },
        "시장정보": "둔촌역전통시장"
    },
    {
        "주소": "서울특별시 강동구 명일동 333-2 일대",
        "지리정보": {
            "latitude": "37.5495206",
            "longitude": "127.1449410"
        },
        "시장정보": "명일전통시장"
    },
    {
        "주소": "서울특별시 강동구 성내동 144-12",
        "지리정보": {
            "latitude": "37.5341651",
            "longitude": "127.1279238"
        },
        "시장정보": "성내전통시장"
    },
    {
        "주소": "서울특별시 강동구 암사동 501-18",
        "지리정보": {
            "latitude": "37.5505930",
            "longitude": "127.1287278"
        },
        "시장정보": "암사종합시장"
    },
    {
        "주소": "서울특별시 강북구  번동 413-3",
        "지리정보": {
            "latitude": "37.6362383",
            "longitude": "127.0303524"
        },
        "시장정보": "강북북부시장"
    },
    {
        "주소": "서울특별시 강북구 미아동 701-3",
        "지리정보": {
            "latitude": "37.6202562",
            "longitude": "127.0188171"
        },
        "시장정보": "동북시장"
    },
    {
        "주소": "서울특별시 강북구 수유동 413-2",
        "지리정보": {
            "latitude": "37.6367393",
            "longitude": "127.0165090"
        },
        "시장정보": "수유북부시장"
    },
    {
        "주소": "서울특별시 강북구 수유1동 54-5",
        "지리정보": {
            "latitude": "37.6307853",
            "longitude": "127.0229691"
        },
        "시장정보": "수유시장"
    },
    {
        "주소": "서울특별시 강북구 수유1동 50-77",
        "지리정보": {
            "latitude": "37.6314983",
            "longitude": "127.0224827"
        },
        "시장정보": "수유재래시장"
    },
    {
        "주소": "서울특별시 강북구 수유동 54-5",
        "지리정보": {
            "latitude": "37.6307853",
            "longitude": "127.0229691"
        },
        "시장정보": "수유전통시장(수유골목시장)"
    },
    {
        "주소": "서울특별시 강북구 수유동 63",
        "지리정보": {
            "latitude": "37.6316986",
            "longitude": "127.0234677"
        },
        "시장정보": "수유프라자"
    },
    {
        "주소": "서울특별시 강북구 미아동 60-5",
        "지리정보": {
            "latitude": "37.6131768",
            "longitude": "127.0295463"
        },
        "시장정보": "숭인시장"
    },
    {
        "주소": "서울특별시 강북구 수유동 270-185",
        "지리정보": {
            "latitude": "37.6459879",
            "longitude": "127.0200092"
        },
        "시장정보": "우이시장"
    },
    {
        "주소": "서울특별시 강북구 수유동 316-11",
        "지리정보": {
            "latitude": "37.6446550",
            "longitude": "127.0160417"
        },
        "시장정보": "장미원골목시장"
    },
    {
        "주소": "서울특별시 강서구  화곡동 342-16",
        "지리정보": {
            "latitude": "37.5315384",
            "longitude": "126.8478438"
        },
        "시장정보": "까치산시장"
    },
    {
        "주소": "서울특별시 강서구 화곡동 797-7",
        "지리정보": {
            "latitude": "37.5322967",
            "longitude": "126.8608422"
        },
        "시장정보": "남부골목시장"
    },
    {
        "주소": "서울특별시 강서구 화곡동 830-1",
        "지리정보": {
            "latitude": "37.5330747",
            "longitude": "126.8589653"
        },
        "시장정보": "남부화곡시장"
    },
    {
        "주소": "서울특별시 강서구 화곡3동 1023",
        "지리정보": {
            "latitude": "37.5445217",
            "longitude": "126.8364517"
        },
        "시장정보": "대원종합시장"
    },
    {
        "주소": "서울특별시 강서구 등촌동 637-10",
        "지리정보": {
            "latitude": "37.5566394",
            "longitude": "126.8601917"
        },
        "시장정보": "등마루시장"
    },
    {
        "주소": "서울특별시 강서구 방화동 579-1",
        "지리정보": {
            "latitude": "37.5715637",
            "longitude": "126.8126546"
        },
        "시장정보": "방신전통시장"
    },
    {
        "주소": "서울특별시 강서구 화곡동 929-1",
        "지리정보": {
            "latitude": "37.5280659",
            "longitude": "126.8423646"
        },
        "시장정보": "신월중앙시장"
    },
    {
        "주소": "서울특별시 강서구 화곡본동 98-45",
        "지리정보": {
            "latitude": "37.5428837",
            "longitude": "126.8441473"
        },
        "시장정보": "화곡본동시장"
    },
    {
        "주소": "서울특별시 강서구 화곡동 362-144",
        "지리정보": {
            "latitude": "37.5348999",
            "longitude": "126.8395146"
        },
        "시장정보": "화곡중앙골목시장"
    },
    {
        "주소": "서울특별시 관악구 신림동 494-34",
        "지리정보": {
            "latitude": "37.4868025",
            "longitude": "126.9170837"
        },
        "시장정보": "관악신사시장"
    },
    {
        "주소": "서울특별시 관악구 봉천동 951-25",
        "지리정보": {
            "latitude": "37.4858884",
            "longitude": "126.9384528"
        },
        "시장정보": "봉일시장"
    },
    {
        "주소": "서울특별시 관악구 청룡동 921-1",
        "지리정보": {
            "latitude": "37.4813109",
            "longitude": "126.9445064"
        },
        "시장정보": "봉천제일종합시장"
    },
    {
        "주소": "서울특별시 관악구 봉천동 32-2",
        "지리정보": {
            "latitude": "37.4839573",
            "longitude": "126.9542168"
        },
        "시장정보": "봉천중앙시장"
    },
    {
        "주소": "서울특별시 관악구 봉천동 503-2",
        "지리정보": {
            "latitude": "37.4862584",
            "longitude": "126.9466092"
        },
        "시장정보": "봉천현대시장"
    },
    {
        "주소": "서울특별시 관악구 신림동 505-1",
        "지리정보": {
            "latitude": "37.4846679",
            "longitude": "126.9171017"
        },
        "시장정보": "신림종합시장"
    },
    {
        "주소": "서울특별시 관악구 조원동 541",
        "지리정보": {
            "latitude": "37.4832209",
            "longitude": "126.9114370"
        },
        "시장정보": "신림중앙시장"
    },
    {
        "주소": "서울특별시 관악구 신림동 1694",
        "지리정보": {
            "latitude": "37.4751229",
            "longitude": "126.9324862"
        },
        "시장정보": "신림현대종합상가"
    },
    {
        "주소": "서울특별시 관악구 신림동 390-1",
        "지리정보": {
            "latitude": "37.4709014",
            "longitude": "126.9322441"
        },
        "시장정보": "신신림시장"
    },
    {
        "주소": "서울특별시 관악구 신원동 1599-3",
        "지리정보": {
            "latitude": "37.4820882",
            "longitude": "126.9273931"
        },
        "시장정보": "신원시장"
    },
    {
        "주소": "서울특별시 관악구 신림동 638-50",
        "지리정보": {
            "latitude": "37.4704641",
            "longitude": "126.9210044"
        },
        "시장정보": "우림시장"
    },
    {
        "주소": "서울특별시 관악구 봉천동 1636-4",
        "지리정보": {
            "latitude": "37.4748726",
            "longitude": "126.9647594"
        },
        "시장정보": "인헌시장"
    },
    {
        "주소": "서울특별시 관악구 신림동 541의 6",
        "지리정보": {
            "latitude": "37.4832209",
            "longitude": "126.9114370"
        },
        "시장정보": "펭귄시장"
    },
    {
        "주소": "서울특별시 광진구 중곡동 229-15",
        "지리정보": {
            "latitude": "37.5636030",
            "longitude": "127.0811516"
        },
        "시장정보": "광성시장"
    },
    {
        "주소": "서울특별시 광진구 자양동 681-37",
        "지리정보": {
            "latitude": "37.5321787",
            "longitude": "127.0862448"
        },
        "시장정보": "노룬산골목시장(인정시장)"
    },
    {
        "주소": "서울특별시 광진구 자양동 44-2",
        "지리정보": {
            "latitude": "37.5364923",
            "longitude": "127.0648731"
        },
        "시장정보": "노룬산시장(건물형)"
    },
    {
        "주소": "서울특별시 광진구 자양동 553-219",
        "지리정보": {
            "latitude": "37.5351813",
            "longitude": "127.0666876"
        },
        "시장정보": "능동로골목시장"
    },
    {
        "주소": "서울특별시 광진구 중곡동 79-7",
        "지리정보": {
            "latitude": "37.5581430",
            "longitude": "127.0881863"
        },
        "시장정보": "신성종합시장(건물형)"
    },
    {
        "주소": "서울특별시 광진구 자양4동 40-38",
        "지리정보": {
            "latitude": "37.5375206",
            "longitude": "127.0642115"
        },
        "시장정보": "영동교골목시장"
    },
    {
        "주소": "서울특별시 광진구 자양동 613-11 일원",
        "지리정보": {
            "latitude": "37.5343871",
            "longitude": "127.0792012"
        },
        "시장정보": "자양전통시장"
    },
    {
        "주소": "서울특별시 광진구 중곡동 221-6번지",
        "지리정보": {
            "latitude": "37.5638677",
            "longitude": "127.0819560"
        },
        "시장정보": "중곡제일전통시장(중곡제일시장)"
    },
    {
        "주소": "서울특별시 광진구 화양동 34-72호",
        "지리정보": {
            "latitude": "37.5435045",
            "longitude": "127.0692945"
        },
        "시장정보": "화양제일골목시장"
    },
    {
        "주소": "서울특별시 구로구 가리봉동 123-62",
        "지리정보": {
            "latitude": "37.4817074",
            "longitude": "126.8890855"
        },
        "시장정보": "가리봉시장"
    },
    {
        "주소": "서울특별시 구로구 개봉동 324-1",
        "지리정보": {
            "latitude": "37.4916943",
            "longitude": "126.8539000"
        },
        "시장정보": "개봉중앙시장"
    },
    {
        "주소": "서울특별시 구로구 고척동 269의1",
        "지리정보": {
            "latitude": "37.5020218",
            "longitude": "126.8511678"
        },
        "시장정보": "개봉프라자"
    },
    {
        "주소": "서울특별시 구로구 고척동 269-1",
        "지리정보": {
            "latitude": "37.5020218",
            "longitude": "126.8511678"
        },
        "시장정보": "고척근린시장"
    },
    {
        "주소": "서울특별시 구로구 구로동734-17 2층",
        "지리정보": {
            "latitude": "37.4896430",
            "longitude": "126.8856434"
        },
        "시장정보": "구로시장"
    },
    {
        "주소": "서울특별시 구로구 구로2동 730-52",
        "지리정보": {
            "latitude": "37.4902676",
            "longitude": "126.8864580"
        },
        "시장정보": "남구로시장"
    },
    {
        "주소": "서울특별시 금천구 독산동 984-10",
        "지리정보": {
            "latitude": "37.4737180",
            "longitude": "126.9004184"
        },
        "시장정보": "남문시장"
    },
    {
        "주소": "서울특별시 금천구 시흥동 828-45",
        "지리정보": {
            "latitude": "37.4513633",
            "longitude": "126.9093480"
        },
        "시장정보": "은행나무시장"
    },
    {
        "주소": "서울특별시 금천구 시흥동 828-45",
        "지리정보": {
            "latitude": "37.4513633",
            "longitude": "126.9093480"
        },
        "시장정보": "비단길현대시장"
    },
    {
        "주소": "서울특별시 노원구 공릉1동 566-20외 65필지",
        "지리정보": {
            "latitude": "37.6227208",
            "longitude": "127.0762298"
        },
        "시장정보": "공릉동도깨비시장"
    },
    {
        "주소": "서울특별시 도봉구 방학동 633-15",
        "지리정보": {
            "latitude": "37.6659613",
            "longitude": "127.0362120"
        },
        "시장정보": "방학동도깨비시장"
    },
    {
        "주소": "서울특별시 도봉구 쌍문동 495-80",
        "지리정보": {
            "latitude": "37.6555067",
            "longitude": "127.0148994"
        },
        "시장정보": "백운시장"
    },
    {
        "주소": "서울특별시 도봉구 쌍문동 94-29",
        "지리정보": {
            "latitude": "37.6484013",
            "longitude": "127.0330163"
        },
        "시장정보": "쌍문시장"
    },
    {
        "주소": "서울특별시 도봉구 창동 557-45 일대",
        "지리정보": {
            "latitude": "37.6384058",
            "longitude": "127.0391405"
        },
        "시장정보": "창동골목시장"
    },
    {
        "주소": "서울특별시 도봉구 창동 578-47",
        "지리정보": {
            "latitude": "37.6394390",
            "longitude": "127.0374712"
        },
        "시장정보": "창동신창시장"
    },
    {
        "주소": "서울특별시 동대문구 제기동 917",
        "지리정보": {
            "latitude": "37.5809170",
            "longitude": "127.0387791"
        },
        "시장정보": "경동광성상가"
    },
    {
        "주소": "서울특별시 동대문구 제기동 1015",
        "지리정보": {
            "latitude": "37.5787794",
            "longitude": "127.0396774"
        },
        "시장정보": "경동시장"
    },
    {
        "주소": "서울특별시 동대문구 답십리동 66-39",
        "지리정보": {
            "latitude": "37.5731981",
            "longitude": "127.0580820"
        },
        "시장정보": "답십리시장"
    },
    {
        "주소": "서울특별시 동대문구 답십리동 967-5",
        "지리정보": {
            "latitude": "37.5667930",
            "longitude": "127.0586862"
        },
        "시장정보": "답십리현대시장"
    },
    {
        "주소": "서울특별시 동대문구 답십리동 495-1",
        "지리정보": {
            "latitude": "37.5676419",
            "longitude": "127.0523272"
        },
        "시장정보": "동부시장"
    },
    {
        "주소": "서울특별시 동대문구 제기동 650",
        "지리정보": {
            "latitude": "37.5798178",
            "longitude": "127.0415478"
        },
        "시장정보": "동서시장"
    },
    {
        "주소": "서울특별시 동대문구  제기동 1082",
        "지리정보": {
            "latitude": "37.5806721",
            "longitude": "127.0376428"
        },
        "시장정보": "서울약령시장"
    },
    {
        "주소": "서울특별시 동대문구 전농동 295-52",
        "지리정보": {
            "latitude": "37.5779698",
            "longitude": "127.0570674"
        },
        "시장정보": "전농로터리시장"
    },
    {
        "주소": "서울특별시 동대문구 제기동 899-1",
        "지리정보": {
            "latitude": "37.5809604",
            "longitude": "127.0404099"
        },
        "시장정보": "청량리농수산물시장"
    },
    {
        "주소": "서울특별시 동대문구 용두동 20-1",
        "지리정보": {
            "latitude": "37.5780794",
            "longitude": "127.0409685"
        },
        "시장정보": "청량리수산시장"
    },
    {
        "주소": "서울특별시 동대문구 제기동 632의 18",
        "지리정보": {
            "latitude": "37.5809127",
            "longitude": "127.0423451"
        },
        "시장정보": "청량리전통시장"
    },
    {
        "주소": "서울특별시 동대문구 제기동 998",
        "지리정보": {
            "latitude": "37.5793683",
            "longitude": "127.0408622"
        },
        "시장정보": "청량리종합시장"
    },
    {
        "주소": "서울특별시 동대문구 제기동 995",
        "지리정보": {
            "latitude": "37.5795796",
            "longitude": "127.0407541"
        },
        "시장정보": "청량리청과물시장"
    },
    {
        "주소": "서울특별시 동대문구 제기동 846-38",
        "지리정보": {
            "latitude": "37.5819148",
            "longitude": "127.0403231"
        },
        "시장정보": "청량종합도매시장(깡통시장)"
    },
    {
        "주소": "서울특별시 동대문구 회기동 57-220",
        "지리정보": {
            "latitude": "37.5914784",
            "longitude": "127.0474713"
        },
        "시장정보": "회기시장"
    },
    {
        "주소": "서울특별시 동작구 상도동 488 강남상가아파트",
        "지리정보": {
            "latitude": "37.4969426",
            "longitude": "126.9535550"
        },
        "시장정보": "강남시장"
    },
    {
        "주소": "서울특별시 동작구 사당동 88-3",
        "지리정보": {
            "latitude": "37.4881637",
            "longitude": "126.9815591"
        },
        "시장정보": "남성시장"
    },
    {
        "주소": "서울특별시 동작구 사당동 267-4",
        "지리정보": {
            "latitude": "37.4829871",
            "longitude": "126.9723133"
        },
        "시장정보": "남성역골목시장"
    },
    {
        "주소": "서울특별시 동작구 본동 187-1",
        "지리정보": {
            "latitude": "37.5122157",
            "longitude": "126.9519020"
        },
        "시장정보": "본동인정시장"
    },
    {
        "주소": "서울특별시 동작구 사당동 318-8 사당시장",
        "지리정보": {
            "latitude": "37.4828663",
            "longitude": "126.9749978"
        },
        "시장정보": "사당시장"
    },
    {
        "주소": "서울특별시 동작구 상도동 464-33",
        "지리정보": {
            "latitude": "37.4996751",
            "longitude": "126.9515589"
        },
        "시장정보": "상도전통시장"
    },
    {
        "주소": "서울특별시 동작구 상도동 324-1 성대시장",
        "지리정보": {
            "latitude": "37.4999765",
            "longitude": "126.9317592"
        },
        "시장정보": "성대시장"
    },
    {
        "주소": "서울특별시 동작구 상도동 324-68",
        "지리정보": {
            "latitude": "37.4992169",
            "longitude": "126.9307820"
        },
        "시장정보": "성대전통시장"
    },
    {
        "주소": "서울특별시 마포구 공덕동 256-10",
        "지리정보": {
            "latitude": "37.5448119",
            "longitude": "126.9533786"
        },
        "시장정보": "공덕시장"
    },
    {
        "주소": "서울특별시 마포구 연남동 227-15",
        "지리정보": {
            "latitude": "37.5623930",
            "longitude": "126.9267426"
        },
        "시장정보": "동진시장"
    },
    {
        "주소": "서울특별시 마포구 성산동 533-1",
        "지리정보": {
            "latitude": "37.5650975",
            "longitude": "126.8981461"
        },
        "시장정보": "마포농수산물시장"
    },
    {
        "주소": "서울특별시 마포구 공덕동 256-5, 256-30",
        "지리정보": {
            "latitude": "37.5451964",
            "longitude": "126.9533142"
        },
        "시장정보": "마포시장"
    },
    {
        "주소": "서울특별시 마포구 망원동 424-7",
        "지리정보": {
            "latitude": "37.5587148",
            "longitude": "126.9050525"
        },
        "시장정보": "망원동월드컵시장"
    },
    {
        "주소": "서울특별시 마포구 망원동 486-37",
        "지리정보": {
            "latitude": "37.5571674",
            "longitude": "126.9059907"
        },
        "시장정보": "망원시장"
    },
    {
        "주소": "서울특별시 마포구 서교동 375-1",
        "지리정보": {
            "latitude": "37.5546647",
            "longitude": "126.9188508"
        },
        "시장정보": "서교시장"
    },
    {
        "주소": "서울특별시 마포구 아현동 327-40",
        "지리정보": {
            "latitude": "37.5563938",
            "longitude": "126.9550612"
        },
        "시장정보": "아현시장"
    },
    {
        "주소": "서울특별시 마포구 서교동 485-14",
        "지리정보": {
            "latitude": "37.5534725",
            "longitude": "126.9126817"
        },
        "시장정보": "영진시장"
    },
    {
        "주소": "서울특별시 서대문구 남가좌동 345-4",
        "지리정보": {
            "latitude": "37.5770173",
            "longitude": "126.9231131"
        },
        "시장정보": "백련시장"
    },
    {
        "주소": "서울특별시 서대문구 연희동 131의 1",
        "지리정보": {
            "latitude": "37.5671643",
            "longitude": "126.9296749"
        },
        "시장정보": "연희사러가"
    },
    {
        "주소": "서울특별시 서대문구 영천동 323",
        "지리정보": {
            "latitude": "37.5703315",
            "longitude": "126.9618560"
        },
        "시장정보": "영천시장"
    },
    {
        "주소": "서울특별시 서대문구 홍은동 48-84",
        "지리정보": {
            "latitude": "37.5915874",
            "longitude": "126.9429081"
        },
        "시장정보": "유진상가"
    },
    {
        "주소": "서울특별시 서대문구 홍제3동 298-7",
        "지리정보": {
            "latitude": "37.5910687",
            "longitude": "126.9432056"
        },
        "시장정보": "인왕시장"
    },
    {
        "주소": "서울특별시 서초구 방배동 767-1 남부종합시장",
        "지리정보": {
            "latitude": "37.4949317",
            "longitude": "126.9848727"
        },
        "시장정보": "남부종합시장"
    },
    {
        "주소": "서울특별시 서초구 양재동1-7",
        "지리정보": {
            "latitude": "37.4843812",
            "longitude": "127.0379742"
        },
        "시장정보": "양재시장"
    },
    {
        "주소": "서울특별시 성동구 금호동3가 308",
        "지리정보": {
            "latitude": "37.5486387",
            "longitude": "127.0230557"
        },
        "시장정보": "금남시장"
    },
    {
        "주소": "서울특별시 성동구 성수동2가 335-16",
        "지리정보": {
            "latitude": "37.5378191",
            "longitude": "127.0548536"
        },
        "시장정보": "뚝도시장"
    },
    {
        "주소": "서울특별시 성동구 마장동 439-1, 4층",
        "지리정보": {
            "latitude": "37.5706640",
            "longitude": "127.0412886"
        },
        "시장정보": "마장축산물시장"
    },
    {
        "주소": "서울특별시 성동구 용답동 57-17",
        "지리정보": {
            "latitude": "37.5641836",
            "longitude": "127.0525641"
        },
        "시장정보": "용답상가시장"
    },
    {
        "주소": "서울특별시 성북구 길음동 535-8 길음시장",
        "지리정보": {
            "latitude": "37.6027181",
            "longitude": "127.0217764"
        },
        "시장정보": "길음시장"
    },
    {
        "주소": "서울특별시 성북구 동소문동5가 59-1",
        "지리정보": {
            "latitude": "37.5916692",
            "longitude": "127.0157194"
        },
        "시장정보": "돈암시장"
    },
    {
        "주소": "서울특별시 성북구 석관동 279-16",
        "지리정보": {
            "latitude": "37.6095167",
            "longitude": "127.0616659"
        },
        "시장정보": "돌곶이시장(구 석관황금시장)"
    },
    {
        "주소": "서울특별시 성북구 장위동 68-225",
        "지리정보": {
            "latitude": "37.6120787",
            "longitude": "127.0507256"
        },
        "시장정보": "장위전통시장"
    },
    {
        "주소": "서울특별시 성북구 정릉동 400-8",
        "지리정보": {
            "latitude": "37.6084661",
            "longitude": "127.0096705"
        },
        "시장정보": "정릉시장"
    },
    {
        "주소": "서울특별시 성북구 정릉동 443-1",
        "지리정보": {
            "latitude": "37.6027803",
            "longitude": "127.0110175"
        },
        "시장정보": "정릉아리랑시장"
    },
    {
        "주소": "서울특별시 송파구 마천동 140-2번지",
        "지리정보": {
            "latitude": "37.4983070",
            "longitude": "127.1506037"
        },
        "시장정보": "마천시장"
    },
    {
        "주소": "서울특별시 송파구 마천동 146-7",
        "지리정보": {
            "latitude": "37.4983916",
            "longitude": "127.1514072"
        },
        "시장정보": "마천중앙시장"
    },
    {
        "주소": "서울특별시 송파구 방이동 137-8",
        "지리정보": {
            "latitude": "37.5103815",
            "longitude": "127.1175702"
        },
        "시장정보": "방이시장"
    },
    {
        "주소": "서울특별시 송파구 잠실동 207-4 지하1층",
        "지리정보": {
            "latitude": "37.5091246",
            "longitude": "127.0849114"
        },
        "시장정보": "새마을시장"
    },
    {
        "주소": "서울특별시 송파구 석촌동 274-8 2층",
        "지리정보": {
            "latitude": "37.5001773",
            "longitude": "127.1065349"
        },
        "시장정보": "석촌시장"
    },
    {
        "주소": "서울특별시 송파구 풍납동 142-1",
        "지리정보": {
            "latitude": "37.5375689",
            "longitude": "127.1194939"
        },
        "시장정보": "풍납시장"
    },
    {
        "주소": "서울특별시 양천구 신월동 447-8",
        "지리정보": {
            "latitude": "37.5249502",
            "longitude": "126.8421322"
        },
        "시장정보": "경창시장"
    },
    {
        "주소": "서울특별시 양천구 목동 526",
        "지리정보": {
            "latitude": "37.5460190",
            "longitude": "126.8739284"
        },
        "시장정보": "목2동시장"
    },
    {
        "주소": "서울특별시 양천구 목동 617-13 목3동시장 고객지원센터",
        "지리정보": {
            "latitude": "37.5481920",
            "longitude": "126.8652205"
        },
        "시장정보": "목동깨비시장 (목3동시장)"
    },
    {
        "주소": "서울특별시 양천구 목동 726-18 목4동시장고객지원센터",
        "지리정보": {
            "latitude": "37.5376227",
            "longitude": "126.8662310"
        },
        "시장정보": "목사랑시장 (목4동시장)"
    },
    {
        "주소": "서울특별시 양천구 신월동 114-18 신영시장고객지원센터",
        "지리정보": {
            "latitude": "37.5330428",
            "longitude": "126.8359976"
        },
        "시장정보": "신월1동신영시장"
    },
    {
        "주소": "서울특별시 양천구 신월동 928-1",
        "지리정보": {
            "latitude": "37.5226729",
            "longitude": "126.8336304"
        },
        "시장정보": "우성상가시장"
    },
    {
        "주소": "서울특별시 양천구 신월동 114-1",
        "지리정보": {
            "latitude": "37.5334823",
            "longitude": "126.8356659"
        },
        "시장정보": "월정로시장"
    },
    {
        "주소": "서울특별시 영등포구 대림동 1028-4",
        "지리정보": {
            "latitude": "37.4903761",
            "longitude": "126.9012632"
        },
        "시장정보": "대림중앙시장"
    },
    {
        "주소": "서울특별시 영등포구 신길동 116-15",
        "지리정보": {
            "latitude": "37.5110955",
            "longitude": "126.9175960"
        },
        "시장정보": "대신시장"
    },
    {
        "주소": "서울특별시 영등포구 영등포동5가 24 동남상가아파트",
        "지리정보": {
            "latitude": "37.5206032",
            "longitude": "126.9056773"
        },
        "시장정보": "동남상가"
    },
    {
        "주소": "서울특별시 영등포구 영등포동5가 20-62",
        "지리정보": {
            "latitude": "37.5201443",
            "longitude": "126.9055489"
        },
        "시장정보": "삼구시장"
    },
    {
        "주소": "서울특별시 영등포구 영등포동5가 18-1",
        "지리정보": {
            "latitude": "37.5199032",
            "longitude": "126.9068069"
        },
        "시장정보": "영신상가"
    },
    {
        "주소": "서울특별시 영등포구 문래동3가 10",
        "지리정보": {
            "latitude": "37.5161189",
            "longitude": "126.9007194"
        },
        "시장정보": "영일시장"
    },
    {
        "주소": "서울특별시 영등포구 신길 6동 2365번지",
        "지리정보": {
            "latitude": "37.5003906",
            "longitude": "126.9159739"
        },
        "시장정보": "영진시장(A동)"
    },
    {
        "주소": "서울특별시 용산구 서계동 260-1 만리시장",
        "지리정보": {
            "latitude": "37.5513004",
            "longitude": "126.9636272"
        },
        "시장정보": "만리시장"
    },
    {
        "주소": "서울특별시 용산구 보광동 260-8 보광시장상가(주)",
        "지리정보": {
            "latitude": "37.5272156",
            "longitude": "127.0002961"
        },
        "시장정보": "보광시장"
    },
    {
        "주소": "서울특별시 용산구 용산동 2가 1-480",
        "지리정보": {
            "latitude": "37.5453000",
            "longitude": "126.9850764"
        },
        "시장정보": "신흥시장"
    },
    {
        "주소": "서울특별시 용산구 효창원로40길 13",
        "지리정보": {
            "latitude": "37.5366334",
            "longitude": "126.9597889"
        },
        "시장정보": "용산용문시장"
    },
    {
        "주소": "서울특별시 용산구 이촌동 301-53 이촌종합상가",
        "지리정보": {
            "latitude": "37.5203883",
            "longitude": "126.9750278"
        },
        "시장정보": "이촌종합시장"
    },
    {
        "주소": "서울특별시 용산구 이태원동 56-9 이태원시장",
        "지리정보": {
            "latitude": "37.5338311",
            "longitude": "126.9900606"
        },
        "시장정보": "이태원시장"
    },
    {
        "주소": "서울특별시 용산구 후암동 103",
        "지리정보": {
            "latitude": "37.5501263",
            "longitude": "126.9764491"
        },
        "시장정보": "후암시장"
    },
    {
        "주소": "서울특별시 은평구 응암동 602-1",
        "지리정보": {
            "latitude": "37.5879273",
            "longitude": "126.9175460"
        },
        "시장정보": "대림골목시장"
    },
    {
        "주소": "서울특별시 은평구 응암동 754-1 양지시장",
        "지리정보": {
            "latitude": "37.5867399",
            "longitude": "126.9177131"
        },
        "시장정보": "대림시장"
    },
    {
        "주소": "서울특별시 은평구 대조동 14-64 3층 303호",
        "지리정보": {
            "latitude": "37.6093313",
            "longitude": "126.9276055"
        },
        "시장정보": "대조시장"
    },
    {
        "주소": "서울특별시 은평구 응암동 427-130",
        "지리정보": {
            "latitude": "37.5939207",
            "longitude": "126.9187017"
        },
        "시장정보": "신응암시장"
    },
    {
        "주소": "서울특별시 은평구 불광동 310-4",
        "지리정보": {
            "latitude": "37.6195903",
            "longitude": "126.9222212"
        },
        "시장정보": "연서시장"
    },
    {
        "주소": "서울특별시 은평구 대조동 14-1",
        "지리정보": {
            "latitude": "37.6105540",
            "longitude": "126.9293057"
        },
        "시장정보": "제일시장"
    },
    {
        "주소": "서울특별시 은평구 증산동 184-9",
        "지리정보": {
            "latitude": "37.5814663",
            "longitude": "126.9050798"
        },
        "시장정보": "증산종합시장"
    },
    {
        "주소": "서울특별시 종로구 예지동 2-1",
        "지리정보": {
            "latitude": "37.5703015",
            "longitude": "126.9987116"
        },
        "시장정보": "광장시장"
    },
    {
        "주소": "서울특별시 종로구 종로6가 289-3 동대",
        "지리정보": {
            "latitude": "37.5703939",
            "longitude": "127.0089121"
        },
        "시장정보": "동대문종합시장"
    },
    {
        "주소": "서울특별시 종로구 종로6가 262-1 동대문종합시장디동",
        "지리정보": {
            "latitude": "37.5708030",
            "longitude": "127.0069193"
        },
        "시장정보": "동대문종합시장D동상가"
    },
    {
        "주소": "서울특별시 종로구 창신동 436-41 동문상가",
        "지리정보": {
            "latitude": "37.5704515",
            "longitude": "127.0113908"
        },
        "시장정보": "동문시장㈜"
    },
    {
        "주소": "서울특별시 종로구 숭인동 206-9 신설종합시장",
        "지리정보": {
            "latitude": "37.5726722",
            "longitude": "127.0203594"
        },
        "시장정보": "신설종합시장"
    },
    {
        "주소": "서울특별시 종로구 종로5가 225-20",
        "지리정보": {
            "latitude": "37.5702121",
            "longitude": "127.0040172"
        },
        "시장정보": "종로신진시장"
    },
    {
        "주소": "서울특별시 종로구 통인동 10-3",
        "지리정보": {
            "latitude": "37.5807736",
            "longitude": "126.9699546"
        },
        "시장정보": "통인시장"
    },
    {
        "주소": "서울특별시 종로구 종로5가 314-7 청오가방도매상가",
        "지리정보": {
            "latitude": "37.5701085",
            "longitude": "127.0030434"
        },
        "시장정보": "한일상가"
    },
    {
        "주소": "서울특별시 종로구 종로 266 동대문종합시장 신관지하1층81호",
        "지리정보": {
            "latitude": "37.5707065",
            "longitude": "127.0073287"
        },
        "시장정보": "동대문종합시장 신관(동대문쇼핑타운)"
    },
    {
        "주소": "서울특별시 중구 신당동 777 광희시장",
        "지리정보": {
            "latitude": "37.5686547",
            "longitude": "127.0119141"
        },
        "시장정보": "광희패션몰"
    },
    {
        "주소": "서울특별시 중구 남창동 49-1",
        "지리정보": {
            "latitude": "37.5594165",
            "longitude": "126.9779413"
        },
        "시장정보": "남대문시장"
    },
    {
        "주소": "서울특별시 중구 신당동 772 남평화시장",
        "지리정보": {
            "latitude": "37.5691897",
            "longitude": "127.0108985"
        },
        "시장정보": "남평화시장"
    },
    {
        "주소": "서울특별시 중구 을지로 4가 157번지",
        "지리정보": {
            "latitude": "37.5669383",
            "longitude": "127.0004019"
        },
        "시장정보": "대림상가"
    },
    {
        "주소": "서울특별시 중구 신당동 217-92 동평화의류상가",
        "지리정보": {
            "latitude": "37.5694788",
            "longitude": "127.0139448"
        },
        "시장정보": "동평화시장"
    },
    {
        "주소": "서울특별시 중구 을지로6가 17-415",
        "지리정보": {
            "latitude": "37.5686150",
            "longitude": "127.0069340"
        },
        "시장정보": "동화상가"
    },
    {
        "주소": "서울특별시 중구 주교동 19-1 방산종합시장",
        "지리정보": {
            "latitude": "37.5687043",
            "longitude": "127.0008111"
        },
        "시장정보": "방산종합시장"
    },
    {
        "주소": "서울특별시 중구 신당동 776 서울운동장 평화시장",
        "지리정보": {
            "latitude": "37.5681513",
            "longitude": "127.0120037"
        },
        "시장정보": "에리어식스(벨포스트)"
    },
    {
        "주소": "서울특별시 중구 남창동 5 삼익패션타운",
        "지리정보": {
            "latitude": "37.5601789",
            "longitude": "126.9789772"
        },
        "시장정보": "삼익패션타운"
    },
    {
        "주소": "서울특별시 중구 황학동 442",
        "지리정보": {
            "latitude": "37.5673964",
            "longitude": "127.0197808"
        },
        "시장정보": "서울중앙시장"
    },
    {
        "주소": "서울특별시 중구 남창동 51-1 롯데손해보험빌딩",
        "지리정보": {
            "latitude": "37.5594320",
            "longitude": "126.9762306"
        },
        "시장정보": "숭례문수입상가"
    },
    {
        "주소": "서울특별시 중구 오장동 44-8 중부빌딩",
        "지리정보": {
            "latitude": "37.5655159",
            "longitude": "126.9995253"
        },
        "시장정보": "신중부시장"
    },
    {
        "주소": "서울특별시 중구 황학동 442",
        "지리정보": {
            "latitude": "37.5673964",
            "longitude": "127.0197808"
        },
        "시장정보": "신중앙시장"
    },
    {
        "주소": "서울특별시 중구 신당동 217-1 신평화상가",
        "지리정보": {
            "latitude": "37.5694444",
            "longitude": "127.0115766"
        },
        "시장정보": "신평화패션타운"
    },
    {
        "주소": "서울특별시 중구 신당동 368-54",
        "지리정보": {
            "latitude": "37.5540255",
            "longitude": "127.0107698"
        },
        "시장정보": "약수시장"
    },
    {
        "주소": "서울특별시 중구 회현동1가 202-1",
        "지리정보": {
            "latitude": "37.5612220",
            "longitude": "126.9801455"
        },
        "시장정보": "자유상가"
    },
    {
        "주소": "서울특별시 중구 신당동 775 제일평화시장",
        "지리정보": {
            "latitude": "37.5684668",
            "longitude": "127.0114130"
        },
        "시장정보": "제일평화시장"
    },
    {
        "주소": "서울특별시 중구 신당동 217-91 청평화시장",
        "지리정보": {
            "latitude": "37.5694828",
            "longitude": "127.0149512"
        },
        "시장정보": "청평화시장"
    },
    {
        "주소": "서울특별시 중구 을지로6가 17-18",
        "지리정보": {
            "latitude": "37.5688578",
            "longitude": "127.0063231"
        },
        "시장정보": "통일상가"
    },
    {
        "주소": "서울특별시 중구 을지로6가 17-48",
        "지리정보": {
            "latitude": "37.5694663",
            "longitude": "127.0080847"
        },
        "시장정보": "평화시장"
    },
    {
        "주소": "서울특별시 중구 황학동 442",
        "지리정보": {
            "latitude": "37.5673964",
            "longitude": "127.0197808"
        },
        "시장정보": "황학시장"
    },
    {
        "주소": "서울특별시 중랑구 신내동 786 동성타워프라자",
        "지리정보": {
            "latitude": "37.6080552",
            "longitude": "127.0972918"
        },
        "시장정보": "동성타워프라자"
    },
    {
        "주소": "서울특별시 중랑구 면목동 74-58",
        "지리정보": {
            "latitude": "37.5898418",
            "longitude": "127.0921090"
        },
        "시장정보": "동원전통종합시장"
    },
    {
        "주소": "서울특별시 중랑구 면목동 666-15",
        "지리정보": {
            "latitude": "37.5775166",
            "longitude": "127.0844291"
        },
        "시장정보": "면목골목시장"
    },
    {
        "주소": "서울특별시 중랑구 면목동 472-45",
        "지리정보": {
            "latitude": "37.5811362",
            "longitude": "127.0894165"
        },
        "시장정보": "사가정시장"
    },
    {
        "주소": "서울특별시 중랑구 신내동 666 신아타운",
        "지리정보": {
            "latitude": "37.6064215",
            "longitude": "127.0947460"
        },
        "시장정보": "신아타운"
    },
    {
        "주소": "서울특별시 중랑구 망우동 463-44 우림시장 편의시설",
        "지리정보": {
            "latitude": "37.5966821",
            "longitude": "127.0982513"
        },
        "시장정보": "우림골목시장"
    },
    {
        "주소": "서울특별시 중랑구 상봉동 129-9 중랑교쇼핑센터",
        "지리정보": {
            "latitude": "37.5929506",
            "longitude": "127.0771288"
        },
        "시장정보": "중랑교종합상가"
    },
    {
        "주소": "서울특별시 중랑구 상봉동 130-161",
        "지리정보": {
            "latitude": "37.5924681",
            "longitude": "127.0763385"
        },
        "시장정보": "중랑동부시장(동부골목시장)"
    },
    {
        "주소": "서울특별시 중랑구 중화동 314-1 태능에셈빌",
        "지리정보": {
            "latitude": "37.5993004",
            "longitude": "127.0774767"
        },
        "시장정보": "태능엔터피아"
    },
    {
        "주소": "부산광역시 강서구 명지동 1-377",
        "지리정보": {
            "latitude": "35.1127699",
            "longitude": "128.9316603"
        },
        "시장정보": "명지시장"
    },
    {
        "주소": "부산광역시 금정구 구서동 87-9",
        "지리정보": {
            "latitude": "35.2473447",
            "longitude": "129.0897371"
        },
        "시장정보": "구서오시게시장"
    },
    {
        "주소": "부산광역시 금정구 금사동 68-14",
        "지리정보": {
            "latitude": "35.2204376",
            "longitude": "129.1125460"
        },
        "시장정보": "금사제일상가시장"
    },
    {
        "주소": "부산광역시 금정구 부곡동 304-1",
        "지리정보": {
            "latitude": "35.2256415",
            "longitude": "129.0913805"
        },
        "시장정보": "부곡상가시장"
    },
    {
        "주소": "부산광역시 금정구서3동 302",
        "지리정보": {
            "latitude": "35.2162746",
            "longitude": "129.1022387"
        },
        "시장정보": "서동시장"
    },
    {
        "주소": "부산광역시 금정구 서3동 338-7",
        "지리정보": {
            "latitude": "35.2152324",
            "longitude": "129.1025365"
        },
        "시장정보": "서동전통골목시장"
    },
    {
        "주소": "부산광역시 금정구 서동 194-1",
        "지리정보": {
            "latitude": "35.2159376",
            "longitude": "129.1033272"
        },
        "시장정보": "서동향토시장"
    },
    {
        "주소": "부산광역시 금정구 장전동155-17",
        "지리정보": {
            "latitude": "35.2374866",
            "longitude": "129.0855868"
        },
        "시장정보": "장성시장"
    },
    {
        "주소": "부산광역시 금정구 장전동421-7",
        "지리정보": {
            "latitude": "35.2306618",
            "longitude": "129.0860581"
        },
        "시장정보": "장전상가시장"
    },
    {
        "주소": "부산광역시 기장군 기장읍 대라리 68-5",
        "지리정보": {
            "latitude": "35.2440266",
            "longitude": "129.2154428"
        },
        "시장정보": "기장시장"
    },
    {
        "주소": "부산광역시 남구 감만1동 171-9",
        "지리정보": {
            "latitude": "35.1162825",
            "longitude": "129.0822963"
        },
        "시장정보": "감만시장"
    },
    {
        "주소": "부산광역시 남구 대연4동1170-7",
        "지리정보": {
            "latitude": "35.1239579",
            "longitude": "129.0890666"
        },
        "시장정보": "남광시장"
    },
    {
        "주소": "부산광역시 남구 대연5동 1760-1",
        "지리정보": {
            "latitude": "35.1356819",
            "longitude": "129.0884214"
        },
        "시장정보": "대연시장"
    },
    {
        "주소": "부산광역시 남구 대연1동 1756-9",
        "지리정보": {
            "latitude": "35.1336053",
            "longitude": "129.0875046"
        },
        "시장정보": "동성하이타운시장"
    },
    {
        "주소": "부산광역시 남구 대연5동 1416-23",
        "지리정보": {
            "latitude": "35.1358531",
            "longitude": "129.0896374"
        },
        "시장정보": "못골골목시장"
    },
    {
        "주소": "부산광역시 남구 감만1동 163-2",
        "지리정보": {
            "latitude": "35.1165028",
            "longitude": "129.0817259"
        },
        "시장정보": "새감만종합시장"
    },
    {
        "주소": "부산광역시 남구 용호동 494-19",
        "지리정보": {
            "latitude": "35.1164112",
            "longitude": "129.1114626"
        },
        "시장정보": "용호골목시장"
    },
    {
        "주소": "부산광역시 남구 용호동 128-1",
        "지리정보": {
            "latitude": "35.1238817",
            "longitude": "129.1105424"
        },
        "시장정보": "용호삼성시장"
    },
    {
        "주소": "부산광역시 남구 용호동 516-10",
        "지리정보": {
            "latitude": "35.1150291",
            "longitude": "129.1127824"
        },
        "시장정보": "용호시장"
    },
    {
        "주소": "부산광역시 남구 우암동 226-17",
        "지리정보": {
            "latitude": "35.1232348",
            "longitude": "129.0780497"
        },
        "시장정보": "우암골목시장"
    },
    {
        "주소": "부산광역시 동구 범일동 830-24",
        "지리정보": {
            "latitude": "35.1409810",
            "longitude": "129.0610662"
        },
        "시장정보": "부산자유시장"
    },
    {
        "주소": "부산광역시 동구 범일동 290-3",
        "지리정보": {
            "latitude": "35.1358930",
            "longitude": "129.0587242"
        },
        "시장정보": "부산남문시장"
    },
    {
        "주소": "부산광역시 동구 범일동 290- 1",
        "지리정보": {
            "latitude": "35.1362089",
            "longitude": "129.0587077"
        },
        "시장정보": "부산진시장"
    },
    {
        "주소": "부산광역시 동구 수정2동 170- 1",
        "지리정보": {
            "latitude": "35.1282583",
            "longitude": "129.0464066"
        },
        "시장정보": "수정시장"
    },
    {
        "주소": "부산광역시 동구 수정동 248-3",
        "지리정보": {
            "latitude": "35.1301385",
            "longitude": "129.0465096"
        },
        "시장정보": "수정전통시장"
    },
    {
        "주소": "부산광역시 동구 초량동 200",
        "지리정보": {
            "latitude": "35.1189096",
            "longitude": "129.0400080"
        },
        "시장정보": "초량상가시장"
    },
    {
        "주소": "부산광역시 동구 초량동 308- 1",
        "지리정보": {
            "latitude": "35.1180527",
            "longitude": "129.0396471"
        },
        "시장정보": "초량전통시장"
    },
    {
        "주소": "부산광역시 동구 범일동 1486",
        "지리정보": {
            "latitude": "35.1418740",
            "longitude": "129.0530350"
        },
        "시장정보": "범일골목시장"
    },
    {
        "주소": "부산광역시 동래구 사직동 44-1",
        "지리정보": {
            "latitude": "35.1983939",
            "longitude": "129.0582382"
        },
        "시장정보": "국민시장"
    },
    {
        "주소": "부산광역시 동래구 온천동1407-2",
        "지리정보": {
            "latitude": "35.2081879",
            "longitude": "129.0719485"
        },
        "시장정보": "금성상가시장"
    },
    {
        "주소": "부산광역시 동래구 복천동 229-42",
        "지리정보": {
            "latitude": "35.2037403",
            "longitude": "129.0863498"
        },
        "시장정보": "동래시장"
    },
    {
        "주소": "부산광역시 동래구 명장1동145-9",
        "지리정보": {
            "latitude": "35.2040423",
            "longitude": "129.1074606"
        },
        "시장정보": "명장시장"
    },
    {
        "주소": "부산광역시 동래구 사직동49-1",
        "지리정보": {
            "latitude": "35.2000281",
            "longitude": "129.0622805"
        },
        "시장정보": "사직시장"
    },
    {
        "주소": "부산광역시 동래구 안락1동425-51",
        "지리정보": {
            "latitude": "35.2003990",
            "longitude": "129.0990128"
        },
        "시장정보": "서원시장"
    },
    {
        "주소": "부산광역시 동래구 수안동275-2",
        "지리정보": {
            "latitude": "35.2015104",
            "longitude": "129.0865767"
        },
        "시장정보": "수안인정시장"
    },
    {
        "주소": "부산광역시 동래구 안락2동603-1",
        "지리정보": {
            "latitude": "35.1956344",
            "longitude": "129.1032673"
        },
        "시장정보": "안락상가시장"
    },
    {
        "주소": "부산광역시 동래구 온천동 146-29",
        "지리정보": {
            "latitude": "35.2231832",
            "longitude": "129.0831995"
        },
        "시장정보": "온천인정시장"
    },
    {
        "주소": "부산광역시 동래구 안락동464-21",
        "지리정보": {
            "latitude": "35.1981180",
            "longitude": "129.1099736"
        },
        "시장정보": "충렬상가시장"
    },
    {
        "주소": "부산광역시 부산진구 가야2동 669-9",
        "지리정보": {
            "latitude": "35.1465921",
            "longitude": "129.0253834"
        },
        "시장정보": "가야벽산상가"
    },
    {
        "주소": "부산광역시 부산진구 개금동 173-2",
        "지리정보": {
            "latitude": "35.1519011",
            "longitude": "129.0248031"
        },
        "시장정보": "개금골목시장"
    },
    {
        "주소": "부산광역시 부산진구 개금동 615-20",
        "지리정보": {
            "latitude": "35.1485177",
            "longitude": "129.0181156"
        },
        "시장정보": "개금큰시장"
    },
    {
        "주소": "부산광역시 부산진구 당감동 791",
        "지리정보": {
            "latitude": "35.1685284",
            "longitude": "129.0285499"
        },
        "시장정보": "국제상가"
    },
    {
        "주소": "부산광역시 부산진구 당감동 262-61",
        "지리정보": {
            "latitude": "35.1632887",
            "longitude": "129.0408756"
        },
        "시장정보": "당감골목시장"
    },
    {
        "주소": "부산광역시 부산진구 당감동 292-118",
        "지리정보": {
            "latitude": "35.1651226",
            "longitude": "129.0421836"
        },
        "시장정보": "당감새시장"
    },
    {
        "주소": "부산광역시 부산진구 당감동 238-89",
        "지리정보": {
            "latitude": "35.1638796",
            "longitude": "129.0417323"
        },
        "시장정보": "당감시장"
    },
    {
        "주소": "부산광역시 부산진구 당감동 315-4",
        "지리정보": {
            "latitude": "35.1666449",
            "longitude": "129.0409098"
        },
        "시장정보": "동평새시장"
    },
    {
        "주소": "부산광역시 부산진구 부전동 27-1",
        "지리정보": {
            "latitude": "35.1635180",
            "longitude": "129.0625543"
        },
        "시장정보": "부산전자종합시장"
    },
    {
        "주소": "부산광역시 부산진구 범천1동 839-52",
        "지리정보": {
            "latitude": "35.1420050",
            "longitude": "129.0609589"
        },
        "시장정보": "부산평화시장"
    },
    {
        "주소": "부산광역시 부산진구 부전동 341-70",
        "지리정보": {
            "latitude": "35.1622185",
            "longitude": "129.0612300"
        },
        "시장정보": "부전기장골목시장"
    },
    {
        "주소": "부산광역시 부산진구 부전동 347-1",
        "지리정보": {
            "latitude": "35.1622602",
            "longitude": "129.0583035"
        },
        "시장정보": "부전농수산물새벽시장"
    },
    {
        "주소": "부산광역시 부산진구 부전동 265-25",
        "지리정보": {
            "latitude": "35.1603569",
            "longitude": "129.0595510"
        },
        "시장정보": "부전상가"
    },
    {
        "주소": "부산광역시 부산진구 부전동 573-3",
        "지리정보": {
            "latitude": "35.1633454",
            "longitude": "129.0610308"
        },
        "시장정보": "부전시장"
    },
    {
        "주소": "부산광역시 부산진구 부전동 573-26",
        "지리정보": {
            "latitude": "35.1630527",
            "longitude": "129.0611546"
        },
        "시장정보": "부전인삼시장"
    },
    {
        "주소": "부산광역시 부산진구 부전동 256-6",
        "지리정보": {
            "latitude": "35.1556420",
            "longitude": "129.0581363"
        },
        "시장정보": "서면시장"
    },
    {
        "주소": "부산광역시 부산진구 부전동 347-40",
        "지리정보": {
            "latitude": "35.1619704",
            "longitude": "129.0589557"
        },
        "시장정보": "서면종합시장"
    },
    {
        "주소": "부산광역시 부산진구 전포2동 608-1",
        "지리정보": {
            "latitude": "35.1608924",
            "longitude": "129.0633194"
        },
        "시장정보": "서면중앙시장"
    },
    {
        "주소": "부산광역시 부산진구 초읍동271-6",
        "지리정보": {
            "latitude": "35.1747838",
            "longitude": "129.0483558"
        },
        "시장정보": "성곡종합시장"
    },
    {
        "주소": "부산광역시 부산진구 양정동 390",
        "지리정보": {
            "latitude": "35.1727815",
            "longitude": "129.0697671"
        },
        "시장정보": "양정시장"
    },
    {
        "주소": "부산광역시 부산진구 연지동 190-40",
        "지리정보": {
            "latitude": "35.1709069",
            "longitude": "129.0514087"
        },
        "시장정보": "연지시장"
    },
    {
        "주소": "부산광역시 부산진구 전포동197-6",
        "지리정보": {
            "latitude": "35.1589976",
            "longitude": "129.0670172"
        },
        "시장정보": "전포놀이터시장"
    },
    {
        "주소": "부산광역시 부산진구 초읍동225",
        "지리정보": {
            "latitude": "35.1773682",
            "longitude": "129.0530342"
        },
        "시장정보": "초읍시장"
    },
    {
        "주소": "부산광역시 북구 구포2동 1188-3번지",
        "지리정보": {
            "latitude": "35.1961847",
            "longitude": "128.9891875"
        },
        "시장정보": "구포축산물도매시장"
    },
    {
        "주소": "부산광역시 북구 덕천동 411-5",
        "지리정보": {
            "latitude": "35.2112357",
            "longitude": "129.0134341"
        },
        "시장정보": "덕천시장"
    },
    {
        "주소": "부산광역시 북구 만덕2동 945-2",
        "지리정보": {
            "latitude": "35.2025008",
            "longitude": "129.0362496"
        },
        "시장정보": "만덕2동제일상가시장"
    },
    {
        "주소": "부산광역시 북구 만덕1동 829",
        "지리정보": {
            "latitude": "35.2144924",
            "longitude": "129.0353740"
        },
        "시장정보": "만덕시장"
    },
    {
        "주소": "부산광역시 북구 구포1동 599-15",
        "지리정보": {
            "latitude": "35.2088806",
            "longitude": "129.0039089"
        },
        "시장정보": "정이있는구포시장"
    },
    {
        "주소": "부산광역시 사상구 감전동121-12",
        "지리정보": {
            "latitude": "35.1563187",
            "longitude": "128.9846147"
        },
        "시장정보": "감전시장"
    },
    {
        "주소": "부산광역시 사상구 감전동 121-12",
        "지리정보": {
            "latitude": "35.1563187",
            "longitude": "128.9846147"
        },
        "시장정보": "감전제일상가시장"
    },
    {
        "주소": "부산광역시 사상구 학장동 167-3",
        "지리정보": {
            "latitude": "35.1346054",
            "longitude": "128.9922152"
        },
        "시장정보": "구덕대림상가"
    },
    {
        "주소": "부산광역시 사상구 괘법동 529-1",
        "지리정보": {
            "latitude": "35.1643049",
            "longitude": "128.9778178"
        },
        "시장정보": "르네시떼시장"
    },
    {
        "주소": "부산광역시 사상구 모라동 1089-3",
        "지리정보": {
            "latitude": "35.1876309",
            "longitude": "128.9874405"
        },
        "시장정보": "모라전통시장"
    },
    {
        "주소": "부산광역시 사상구 덕포동 421-13",
        "지리정보": {
            "latitude": "35.1713083",
            "longitude": "128.9822708"
        },
        "시장정보": "복이있는덕포시장"
    },
    {
        "주소": "부산광역시 사상구 감전동 152-2",
        "지리정보": {
            "latitude": "35.1532383",
            "longitude": "128.9814231"
        },
        "시장정보": "부산산업용재유통상가"
    },
    {
        "주소": "부산광역시 사상구 괘법동 578",
        "지리정보": {
            "latitude": "35.1597706",
            "longitude": "128.9794944"
        },
        "시장정보": "부산산업용품상협동조합"
    },
    {
        "주소": "부산광역시 사상구 감전동 143-16",
        "지리정보": {
            "latitude": "35.1539045",
            "longitude": "128.9815883"
        },
        "시장정보": "부산새벽시장"
    },
    {
        "주소": "부산광역시 사상구 괘법동 379-1",
        "지리정보": {
            "latitude": "35.1666587",
            "longitude": "128.9855050"
        },
        "시장정보": "사상시장"
    },
    {
        "주소": "부산광역시 사상구 학장동 570-2",
        "지리정보": {
            "latitude": "35.1406898",
            "longitude": "128.9879791"
        },
        "시장정보": "영해종합시장"
    },
    {
        "주소": "부산광역시 사상구 모라동 1362",
        "지리정보": {
            "latitude": "35.1839065",
            "longitude": "128.9919849"
        },
        "시장정보": "우신종합상가"
    },
    {
        "주소": "부산광역시 사상구 주례동 595-4",
        "지리정보": {
            "latitude": "35.1473553",
            "longitude": "129.0034181"
        },
        "시장정보": "주례럭키종합상가"
    },
    {
        "주소": "부산광역시 사상구 주례동 530-5",
        "지리정보": {
            "latitude": "35.1451765",
            "longitude": "129.0055218"
        },
        "시장정보": "주례현대무지개상가"
    },
    {
        "주소": "부산광역시 사상구 엄궁동 642",
        "지리정보": {
            "latitude": "35.1343589",
            "longitude": "128.9660447"
        },
        "시장정보": "부산광역시건축자재판매협동조합"
    },
    {
        "주소": "부산광역시 사하구 감천 2동 13-13",
        "지리정보": {
            "latitude": "35.0938720",
            "longitude": "129.0087980"
        },
        "시장정보": "감천2동시장"
    },
    {
        "주소": "부산광역시 사하구 감천 1동 471",
        "지리정보": {
            "latitude": "35.0882708",
            "longitude": "129.0055478"
        },
        "시장정보": "감천시장"
    },
    {
        "주소": "부산광역시 사하구 사하로 198",
        "지리정보": {
            "latitude": "35.0993400",
            "longitude": "128.9937133"
        },
        "시장정보": "괴정골목시장"
    },
    {
        "주소": "부산광역시 사하구 다대동 680-2",
        "지리정보": {
            "latitude": "35.0551057",
            "longitude": "128.9719660"
        },
        "시장정보": "다대씨-파크"
    },
    {
        "주소": "부산광역시 사하구 당리동 143-1",
        "지리정보": {
            "latitude": "35.1054351",
            "longitude": "128.9753295"
        },
        "시장정보": "당리시장"
    },
    {
        "주소": "부산광역시 사하구 괴정동 550-38",
        "지리정보": {
            "latitude": "35.0983757",
            "longitude": "128.9864376"
        },
        "시장정보": "사하시장"
    },
    {
        "주소": "부산광역시 사하구 신평1동 111-282",
        "지리정보": {
            "latitude": "35.0910783",
            "longitude": "128.9771219"
        },
        "시장정보": "신평골목시장"
    },
    {
        "주소": "부산광역시 사하구 신평1동 111-213",
        "지리정보": {
            "latitude": "35.0915897",
            "longitude": "128.9768797"
        },
        "시장정보": "신평종합시장"
    },
    {
        "주소": "부산광역시 사하구 하단2동 500-29",
        "지리정보": {
            "latitude": "35.1111547",
            "longitude": "128.9627240"
        },
        "시장정보": "에덴골목시장"
    },
    {
        "주소": "부산광역시 사하구 하단2동 487-6",
        "지리정보": {
            "latitude": "35.1114267",
            "longitude": "128.9631106"
        },
        "시장정보": "에덴시장"
    },
    {
        "주소": "부산광역시 사하구 장림동 641-268",
        "지리정보": {
            "latitude": "35.0804746",
            "longitude": "128.9676692"
        },
        "시장정보": "장림골목시장"
    },
    {
        "주소": "부산광역시 사하구 장림동 792-7",
        "지리정보": {
            "latitude": "35.0807719",
            "longitude": "128.9678839"
        },
        "시장정보": "장림시장"
    },
    {
        "주소": "부산광역시 사하구 당리동 302-7",
        "지리정보": {
            "latitude": "35.1061774",
            "longitude": "128.9695844"
        },
        "시장정보": "하단시장"
    },
    {
        "주소": "부산광역시 사하구 하단 1동 620-8",
        "지리정보": {
            "latitude": "35.1037079",
            "longitude": "128.9708044"
        },
        "시장정보": "하단오일상설시장"
    },
    {
        "주소": "부산광역시 서구 동대신동1가 113-1",
        "지리정보": {
            "latitude": "35.1103784",
            "longitude": "129.0197148"
        },
        "시장정보": "대신시장"
    },
    {
        "주소": "부산광역시 서구 동대신동1가129-6",
        "지리정보": {
            "latitude": "35.1103057",
            "longitude": "129.0191917"
        },
        "시장정보": "동대신1동골목시장"
    },
    {
        "주소": "부산광역시 서구 서대신동1가 149-4",
        "지리정보": {
            "latitude": "35.1086519",
            "longitude": "129.0144463"
        },
        "시장정보": "서대신1동골목시장"
    },
    {
        "주소": "부산광역시 서구 서대신동2가 99-5",
        "지리정보": {
            "latitude": "35.1104413",
            "longitude": "129.0173296"
        },
        "시장정보": "서대신동골목시장"
    },
    {
        "주소": "부산광역시 서구 암남동 346-2",
        "지리정보": {
            "latitude": "35.0785058",
            "longitude": "129.0168210"
        },
        "시장정보": "송남시장"
    },
    {
        "주소": "부산광역시 서구 아미동 2가 96-11",
        "지리정보": {
            "latitude": "35.0996538",
            "longitude": "129.0174942"
        },
        "시장정보": "아미시장"
    },
    {
        "주소": "부산광역시 서구 충무동1가 38-32",
        "지리정보": {
            "latitude": "35.0942904",
            "longitude": "129.0236448"
        },
        "시장정보": "충무동골목시장"
    },
    {
        "주소": "부산광역시 서구 남부민동 685-1",
        "지리정보": {
            "latitude": "35.0928182",
            "longitude": "129.0249138"
        },
        "시장정보": "충무동새벽시장"
    },
    {
        "주소": "부산광역시 서구 충무동 1가 43-1",
        "지리정보": {
            "latitude": "35.0956455",
            "longitude": "129.0250908"
        },
        "시장정보": "충무동해안시장"
    },
    {
        "주소": "부산광역시 수영구 광안동559-2",
        "지리정보": {
            "latitude": "35.1601828",
            "longitude": "129.1122914"
        },
        "시장정보": "광안시장"
    },
    {
        "주소": "부산광역시 수영구 민락동181-72",
        "지리정보": {
            "latitude": "35.1555038",
            "longitude": "129.1246225"
        },
        "시장정보": "광안어패류시장"
    },
    {
        "주소": "부산광역시 수영구 광안동 94-1",
        "지리정보": {
            "latitude": "35.1641587",
            "longitude": "129.1181856"
        },
        "시장정보": "광안종합시장"
    },
    {
        "주소": "부산광역시 수영구 남천동556",
        "지리정보": {
            "latitude": "35.1392230",
            "longitude": "129.1090724"
        },
        "시장정보": "남천해변시장"
    },
    {
        "주소": "부산광역시 수영구 민락동161-7",
        "지리정보": {
            "latitude": "35.1591196",
            "longitude": "129.1212789"
        },
        "시장정보": "동방시장"
    },
    {
        "주소": "부산광역시 수영구 망미동777",
        "지리정보": {
            "latitude": "35.1690957",
            "longitude": "129.1018680"
        },
        "시장정보": "망미삼성상가시장"
    },
    {
        "주소": "부산광역시 수영구 망미동831",
        "지리정보": {
            "latitude": "35.1736190",
            "longitude": "129.1007346"
        },
        "시장정보": "망미새상가시장"
    },
    {
        "주소": "부산광역시 수영구 망미동804",
        "지리정보": {
            "latitude": "35.1719050",
            "longitude": "129.1036027"
        },
        "시장정보": "망미종합시장"
    },
    {
        "주소": "부산광역시 수영구 망미동 420-25",
        "지리정보": {
            "latitude": "35.1723688",
            "longitude": "129.1093499"
        },
        "시장정보": "망미중앙시장"
    },
    {
        "주소": "부산광역시 수영구 민락동 231-40",
        "지리정보": {
            "latitude": "35.1576025",
            "longitude": "129.1236615"
        },
        "시장정보": "민락골목시장"
    },
    {
        "주소": "부산광역시 수영구 민락동 181-228",
        "지리정보": {
            "latitude": "35.1568510",
            "longitude": "129.1261197"
        },
        "시장정보": "민락씨랜드시장"
    },
    {
        "주소": "부산광역시 수영구 민락동 181-8",
        "지리정보": {
            "latitude": "35.1556808",
            "longitude": "129.1244458"
        },
        "시장정보": "민락어패류시장"
    },
    {
        "주소": "부산광역시 수영구 민락동 184-84",
        "지리정보": {
            "latitude": "35.1555432",
            "longitude": "129.1238230"
        },
        "시장정보": "민락회타운시장"
    },
    {
        "주소": "부산광역시 수영구 남천동 148-9",
        "지리정보": {
            "latitude": "35.1439342",
            "longitude": "129.1144561"
        },
        "시장정보": "삼익비치A상가시장"
    },
    {
        "주소": "부산광역시 수영구 남천동 148-5",
        "지리정보": {
            "latitude": "35.1457346",
            "longitude": "129.1152289"
        },
        "시장정보": "삼익비치B상가시장"
    },
    {
        "주소": "부산광역시 수영구 남천동 26-5",
        "지리정보": {
            "latitude": "35.1494025",
            "longitude": "129.1123187"
        },
        "시장정보": "세흥시장"
    },
    {
        "주소": "부산광역시 수영구 수영동 305-3",
        "지리정보": {
            "latitude": "35.1687891",
            "longitude": "129.1169097"
        },
        "시장정보": "수영팔도시장"
    },
    {
        "주소": "부산광역시 수영구 수영동541",
        "지리정보": {
            "latitude": "35.1678974",
            "longitude": "129.1229675"
        },
        "시장정보": "현대종합상가시장"
    },
    {
        "주소": "부산광역시 연제구 거제동 987-10",
        "지리정보": {
            "latitude": "35.1897408",
            "longitude": "129.0681681"
        },
        "시장정보": "거성시장"
    },
    {
        "주소": "부산광역시 연제구 거제동 486-1",
        "지리정보": {
            "latitude": "35.1819204",
            "longitude": "129.0728240"
        },
        "시장정보": "거제시장"
    },
    {
        "주소": "부산광역시 연제구 연산동312-18",
        "지리정보": {
            "latitude": "35.1888870",
            "longitude": "129.0925590"
        },
        "시장정보": "연동시장"
    },
    {
        "주소": "부산광역시 연제구 연산동 2122-26",
        "지리정보": {
            "latitude": "35.1741177",
            "longitude": "129.0945732"
        },
        "시장정보": "연미새시장"
    },
    {
        "주소": "부산광역시 연제구 연산동636-28",
        "지리정보": {
            "latitude": "35.1854501",
            "longitude": "129.0848882"
        },
        "시장정보": "연일시장"
    },
    {
        "주소": "부산광역시 연제구 연산동 364-1",
        "지리정보": {
            "latitude": "35.1894752",
            "longitude": "129.0980538"
        },
        "시장정보": "연천시장"
    },
    {
        "주소": "부산광역시 연제구 연산동 1364-2",
        "지리정보": {
            "latitude": "35.1807971",
            "longitude": "129.0770337"
        },
        "시장정보": "영남종합시장"
    },
    {
        "주소": "부산광역시 영도구 영선동2가 64-6",
        "지리정보": {
            "latitude": "35.0889115",
            "longitude": "129.0422603"
        },
        "시장정보": "남항시장"
    },
    {
        "주소": "부산광역시 영도구 봉래동 3가 13-2",
        "지리정보": {
            "latitude": "35.0927080",
            "longitude": "129.0432771"
        },
        "시장정보": "영도봉래시장"
    },
    {
        "주소": "부산광역시 영도구 청학동 297-1",
        "지리정보": {
            "latitude": "35.0967165",
            "longitude": "129.0601896"
        },
        "시장정보": "청학시장"
    },
    {
        "주소": "부산광역시 중구 남포동1가 62-1",
        "지리정보": {
            "latitude": "35.0968415",
            "longitude": "129.0348371"
        },
        "시장정보": "남포동건어물도매시장"
    },
    {
        "주소": "부산광역시 중구 신창동 4가",
        "지리정보": {
            "latitude": "35.1012786",
            "longitude": "129.0282303"
        },
        "시장정보": "국제시장"
    },
    {
        "주소": "부산광역시 중구 신창동4가 10-5",
        "지리정보": {
            "latitude": "35.1014907",
            "longitude": "129.0285540"
        },
        "시장정보": "만물의거리시장"
    },
    {
        "주소": "부산광역시 중구 보수동3가 46-1",
        "지리정보": {
            "latitude": "35.1041982",
            "longitude": "129.0217598"
        },
        "시장정보": "보수종합시장"
    },
    {
        "주소": "부산광역시 중구 중앙동7가 20-1",
        "지리정보": {
            "latitude": "35.0980088",
            "longitude": "129.0361016"
        },
        "시장정보": "부산데파트"
    },
    {
        "주소": "부산광역시 중구 남포동4가 37-1",
        "지리정보": {
            "latitude": "35.0967415",
            "longitude": "129.0311144"
        },
        "시장정보": "부산자갈밭시장"
    },
    {
        "주소": "부산광역시 중구 부평동2가 16",
        "지리정보": {
            "latitude": "35.1015483",
            "longitude": "129.0260196"
        },
        "시장정보": "부평깡통시장"
    },
    {
        "주소": "부산광역시 중구 영주동 20-16",
        "지리정보": {
            "latitude": "35.1127043",
            "longitude": "129.0363030"
        },
        "시장정보": "새영주시장"
    },
    {
        "주소": "부산광역시 중구 남포동5가 92",
        "지리정보": {
            "latitude": "35.0968524",
            "longitude": "129.0290786"
        },
        "시장정보": "신동아수산물종합시장"
    },
    {
        "주소": "부산광역시 중구 신창동1가 19-2",
        "지리정보": {
            "latitude": "35.1011832",
            "longitude": "129.0302021"
        },
        "시장정보": "신창상가"
    },
    {
        "주소": "부산광역시 중구 남포동6가 3",
        "지리정보": {
            "latitude": "35.0970501",
            "longitude": "129.0278135"
        },
        "시장정보": "신천지시장"
    },
    {
        "주소": "부산광역시 중구 신창동 3가 17-1",
        "지리정보": {
            "latitude": "35.1004627",
            "longitude": "129.0289715"
        },
        "시장정보": "아리랑거리"
    },
    {
        "주소": "부산광역시 중구 영주동 595-3",
        "지리정보": {
            "latitude": "35.1119026",
            "longitude": "129.0369914"
        },
        "시장정보": "영주시장"
    },
    {
        "주소": "부산광역시 중구 부평동2가 2",
        "지리정보": {
            "latitude": "35.1028243",
            "longitude": "129.0263593"
        },
        "시장정보": "월드밸리"
    },
    {
        "주소": "부산광역시 중구 남포동4가 37-1",
        "지리정보": {
            "latitude": "35.0967415",
            "longitude": "129.0311144"
        },
        "시장정보": "자갈치시장"
    },
    {
        "주소": "부산광역시 중구 부평동1가 13-6",
        "지리정보": {
            "latitude": "35.1019360",
            "longitude": "129.0277149"
        },
        "시장정보": "창선상가"
    },
    {
        "주소": "부산광역시 해운대구 반송2동 40-762",
        "지리정보": {
            "latitude": "35.2311235",
            "longitude": "129.1562233"
        },
        "시장정보": "반송큰시장(반송2동시장)"
    },
    {
        "주소": "부산광역시 해운대구 반송동 250-371",
        "지리정보": {
            "latitude": "35.2242790",
            "longitude": "129.1502771"
        },
        "시장정보": "반송골목시장"
    },
    {
        "주소": "부산광역시 해운대구 반송1동 709-12",
        "지리정보": {
            "latitude": "35.2264767",
            "longitude": "129.1480211"
        },
        "시장정보": "반송시장"
    },
    {
        "주소": "부산광역시 해운대구 반여2동 1291-1425",
        "지리정보": {
            "latitude": "35.1960178",
            "longitude": "129.1290533"
        },
        "시장정보": "반여2동상가시장"
    },
    {
        "주소": "부산광역시 해운대구 반여3동 1607-2",
        "지리정보": {
            "latitude": "35.1999296",
            "longitude": "129.1320607"
        },
        "시장정보": "반여3동골목시장"
    },
    {
        "주소": "부산광역시 해운대구 반여2동 1291 918",
        "지리정보": {
            "latitude": "35.1956065",
            "longitude": "129.1287704"
        },
        "시장정보": "반여시장"
    },
    {
        "주소": "부산광역시 해운대구 우2동 1092 16",
        "지리정보": {
            "latitude": "35.1703636",
            "longitude": "129.1389271"
        },
        "시장정보": "우동종합상가시장"
    },
    {
        "주소": "부산광역시 해운대구 재송1동 1080-5",
        "지리정보": {
            "latitude": "35.1867290",
            "longitude": "129.1236801"
        },
        "시장정보": "재송시장"
    },
    {
        "주소": "부산광역시 해운대구 재송동 1089-18",
        "지리정보": {
            "latitude": "35.1860648",
            "longitude": "129.1246084"
        },
        "시장정보": "재송한마음시장"
    },
    {
        "주소": "부산광역시 해운대구  좌동 892",
        "지리정보": {
            "latitude": "35.1731143",
            "longitude": "129.1744692"
        },
        "시장정보": "좌동재래시장"
    },
    {
        "주소": "부산광역시 해운대구 중1동 1394-193",
        "지리정보": {
            "latitude": "35.1614143",
            "longitude": "129.1623275"
        },
        "시장정보": "해운대시장"
    },
    {
        "주소": "대구광역시 남구 대명동 1135-4",
        "지리정보": {
            "latitude": "35.8365518",
            "longitude": "128.5573082"
        },
        "시장정보": "관문상가시장"
    },
    {
        "주소": "대구광역시 남구 대명동 1160",
        "지리정보": {
            "latitude": "35.8355377",
            "longitude": "128.5590727"
        },
        "시장정보": "관문시장"
    },
    {
        "주소": "대구광역시 남구 대명동 460-1",
        "지리정보": {
            "latitude": "35.8373723",
            "longitude": "128.5827601"
        },
        "시장정보": "광덕시장"
    },
    {
        "주소": "대구광역시 남구 대명동 797-1",
        "지리정보": {
            "latitude": "35.8414179",
            "longitude": "128.5778926"
        },
        "시장정보": "남부시장"
    },
    {
        "주소": "대구광역시 남구 대명6동 1040-4",
        "지리정보": {
            "latitude": "35.8368674",
            "longitude": "128.5679606"
        },
        "시장정보": "대명중앙시장"
    },
    {
        "주소": "대구광역시 남구 대명동 141-1",
        "지리정보": {
            "latitude": "35.8447795",
            "longitude": "128.5882491"
        },
        "시장정보": "명덕시장"
    },
    {
        "주소": "대구광역시 남구 봉덕동 961-39",
        "지리정보": {
            "latitude": "35.8457985",
            "longitude": "128.6036751"
        },
        "시장정보": "봉덕시장"
    },
    {
        "주소": "대구광역시 남구 대명동 3023-23",
        "지리정보": {
            "latitude": "35.8502341",
            "longitude": "128.5730476"
        },
        "시장정보": "성당시장"
    },
    {
        "주소": "대구광역시 남구 대명동 829-2",
        "지리정보": {
            "latitude": "35.8368842",
            "longitude": "128.5751406"
        },
        "시장정보": "안지랑시장"
    },
    {
        "주소": "대구광역시 남구 대명동 2014-204",
        "지리정보": {
            "latitude": "35.8523104",
            "longitude": "128.5929208"
        },
        "시장정보": "영선신시장"
    },
    {
        "주소": "대구광역시 달서구 본동 225-1",
        "지리정보": {
            "latitude": "35.8367797",
            "longitude": "128.5470156"
        },
        "시장정보": "달서송림시장"
    },
    {
        "주소": "대구광역시 달서구 본리동 145-2.-5번지",
        "지리정보": {
            "latitude": "35.8404137",
            "longitude": "128.5441878"
        },
        "시장정보": "달서시장"
    },
    {
        "주소": "대구광역시 달서구 도원동 1432",
        "지리정보": {
            "latitude": "35.8075825",
            "longitude": "128.5354528"
        },
        "시장정보": "대곡시장"
    },
    {
        "주소": "대구광역시 달서구 상인2동 1472-1",
        "지리정보": {
            "latitude": "35.8116676",
            "longitude": "128.5377968"
        },
        "시장정보": "대구대동시장"
    },
    {
        "주소": "대구광역시 달서구 두류동 136-6",
        "지리정보": {
            "latitude": "35.8585570",
            "longitude": "128.5620052"
        },
        "시장정보": "대구예전우시장"
    },
    {
        "주소": "대구광역시 달서구 도원동 1437-1",
        "지리정보": {
            "latitude": "35.8075553",
            "longitude": "128.5367565"
        },
        "시장정보": "도원시장"
    },
    {
        "주소": "대구광역시 달서구 성당동 704-5",
        "지리정보": {
            "latitude": "35.8455016",
            "longitude": "128.5451515"
        },
        "시장정보": "두류종합시장"
    },
    {
        "주소": "대구광역시 달서구 상인1동42",
        "지리정보": {
            "latitude": "35.8225812",
            "longitude": "128.5354497"
        },
        "시장정보": "보성은하상가"
    },
    {
        "주소": "대구광역시 달서구 상인동 1582-4",
        "지리정보": {
            "latitude": "35.8090303",
            "longitude": "128.5512597"
        },
        "시장정보": "상원시장"
    },
    {
        "주소": "대구광역시 달서구 상인1동1517",
        "지리정보": {
            "latitude": "35.8173870",
            "longitude": "128.5430662"
        },
        "시장정보": "상인영남상가"
    },
    {
        "주소": "대구광역시 달서구 감삼동 55-5",
        "지리정보": {
            "latitude": "35.8543734",
            "longitude": "128.5451791"
        },
        "시장정보": "서남시장"
    },
    {
        "주소": "대구광역시 달서구 감삼동 62-4",
        "지리정보": {
            "latitude": "35.8540918",
            "longitude": "128.5458943"
        },
        "시장정보": "서남신시장"
    },
    {
        "주소": "대구광역시 달서구 이곡동 1191번지 보성화성상가",
        "지리정보": {
            "latitude": "35.8563230",
            "longitude": "128.5032027"
        },
        "시장정보": "성서보성화성상가"
    },
    {
        "주소": "대구광역시 달서구 송현1동 1941-3",
        "지리정보": {
            "latitude": "35.8271754",
            "longitude": "128.5515093"
        },
        "시장정보": "송경종합시장"
    },
    {
        "주소": "대구광역시 달서구 송현동 1948-3",
        "지리정보": {
            "latitude": "35.8226469",
            "longitude": "128.5481426"
        },
        "시장정보": "송현주공시장(월촌역시장)"
    },
    {
        "주소": "대구광역시 달서구 두류3동 486-1",
        "지리정보": {
            "latitude": "35.8545806",
            "longitude": "128.5538578"
        },
        "시장정보": "신내당시장"
    },
    {
        "주소": "대구광역시 달서구 신당동 1788-3",
        "지리정보": {
            "latitude": "35.8558155",
            "longitude": "128.4993167"
        },
        "시장정보": "와룡시장"
    },
    {
        "주소": "대구광역시 달서구 용산동 421-1",
        "지리정보": {
            "latitude": "35.8551425",
            "longitude": "128.5213886"
        },
        "시장정보": "성서용산시장"
    },
    {
        "주소": "대구광역시 달서구 용산동 933",
        "지리정보": {
            "latitude": "35.8580402",
            "longitude": "128.5311737"
        },
        "시장정보": "용산종합큰시장"
    },
    {
        "주소": "대구광역시 달서구 진천동 241-3",
        "지리정보": {
            "latitude": "35.8140380",
            "longitude": "128.5275136"
        },
        "시장정보": "월배시장"
    },
    {
        "주소": "대구광역시 달서구 학산로 17",
        "지리정보": {
            "latitude": "35.8275367",
            "longitude": "128.5310970"
        },
        "시장정보": "월성청구시장"
    },
    {
        "주소": "대구광역시 달서구 성당동 706-21",
        "지리정보": {
            "latitude": "35.8452833",
            "longitude": "128.5462446"
        },
        "시장정보": "두류신시장"
    },
    {
        "주소": "대구광역시 달성군 논공읍 북리 824-26",
        "지리정보": {
            "latitude": "35.7285118",
            "longitude": "128.4465458"
        },
        "시장정보": "논공중앙시장"
    },
    {
        "주소": "대구광역시 달성군  현풍읍 원교리 12-5",
        "지리정보": {
            "latitude": "35.6947902",
            "longitude": "128.4421754"
        },
        "시장정보": "현풍백년도깨비시장"
    },
    {
        "주소": "대구광역시 달성군 화원읍 천내리 892-1",
        "지리정보": {
            "latitude": "35.8011760",
            "longitude": "128.4995279"
        },
        "시장정보": "화원시장"
    },
    {
        "주소": "대구광역시 동구 지저동 694-41",
        "지리정보": {
            "latitude": "35.8963792",
            "longitude": "128.6382384"
        },
        "시장정보": "공항시장"
    },
    {
        "주소": "대구광역시 동구 효목동 533",
        "지리정보": {
            "latitude": "35.8741016",
            "longitude": "128.6396141"
        },
        "시장정보": "동구시장"
    },
    {
        "주소": "대구광역시 동구 신천동 278",
        "지리정보": {
            "latitude": "35.8742990",
            "longitude": "128.6205346"
        },
        "시장정보": "동대구역전시장"
    },
    {
        "주소": "대구광역시 동구 신암동 94-14",
        "지리정보": {
            "latitude": "35.8881958",
            "longitude": "128.6334001"
        },
        "시장정보": "동서시장"
    },
    {
        "주소": "대구광역시 동구 신기동 271-2",
        "지리정보": {
            "latitude": "35.8699718",
            "longitude": "128.7046591"
        },
        "시장정보": "목련시장"
    },
    {
        "주소": "대구광역시 동구 신기동 174-1",
        "지리정보": {
            "latitude": "35.8723993",
            "longitude": "128.7023798"
        },
        "시장정보": "반야월종합시장"
    },
    {
        "주소": "대구광역시 동구 방촌동 1067-2",
        "지리정보": {
            "latitude": "35.8812179",
            "longitude": "128.6643735"
        },
        "시장정보": "방촌시장"
    },
    {
        "주소": "대구광역시 동구 불로동 449-1",
        "지리정보": {
            "latitude": "35.9102351",
            "longitude": "128.6419343"
        },
        "시장정보": "불로전통시장"
    },
    {
        "주소": "대구광역시 동구 신천동 537-13",
        "지리정보": {
            "latitude": "35.8744567",
            "longitude": "128.6152849"
        },
        "시장정보": "송라시장"
    },
    {
        "주소": "대구광역시 동구 신암동 597-14",
        "지리정보": {
            "latitude": "35.8826688",
            "longitude": "128.6194844"
        },
        "시장정보": "평화시장"
    },
    {
        "주소": "대구광역시 북구 칠성동1가 234-9",
        "지리정보": {
            "latitude": "35.8771872",
            "longitude": "128.6019756"
        },
        "시장정보": "대구능금시장"
    },
    {
        "주소": "대구광역시 북구 칠성동1가 276-102",
        "지리정보": {
            "latitude": "35.8771944",
            "longitude": "128.6041177"
        },
        "시장정보": "대구청과시장"
    },
    {
        "주소": "대구광역시 북구 대현동 390",
        "지리정보": {
            "latitude": "35.8811356",
            "longitude": "128.6089338"
        },
        "시장정보": "동대구시장"
    },
    {
        "주소": "대구광역시 북구 대현동 270-8",
        "지리정보": {
            "latitude": "35.8821485",
            "longitude": "128.6097699"
        },
        "시장정보": "동대구신시장"
    },
    {
        "주소": "대구광역시 북구 산격동 1258",
        "지리정보": {
            "latitude": "35.8984123",
            "longitude": "128.6105172"
        },
        "시장정보": "산격종합시장"
    },
    {
        "주소": "대구광역시 북구 칠성동1가 276-108",
        "지리정보": {
            "latitude": "35.8778304",
            "longitude": "128.6035752"
        },
        "시장정보": "삼성시장"
    },
    {
        "주소": "대구광역시 북구 서변동 1751",
        "지리정보": {
            "latitude": "35.9209978",
            "longitude": "128.5961895"
        },
        "시장정보": "서변중앙시장"
    },
    {
        "주소": "대구광역시 북구 태전동 156-1",
        "지리정보": {
            "latitude": "35.9216773",
            "longitude": "128.5449455"
        },
        "시장정보": "중앙시장"
    },
    {
        "주소": "대구광역시 북구 읍내동 1201-1",
        "지리정보": {
            "latitude": "35.9423795",
            "longitude": "128.5510184"
        },
        "시장정보": "칠곡시장"
    },
    {
        "주소": "대구광역시 북구 칠성동1가 276-163",
        "지리정보": {
            "latitude": "35.8763055",
            "longitude": "128.6053736"
        },
        "시장정보": "칠성시장"
    },
    {
        "주소": "대구광역시 북구 칠성동1가 89",
        "지리정보": {
            "latitude": "35.8756535",
            "longitude": "128.6040357"
        },
        "시장정보": "칠성진시장"
    },
    {
        "주소": "대구광역시 북구 노원동3가",
        "지리정보": {
            "latitude": "35.8964",
            "longitude": "128.5674"
        },
        "시장정보": "팔달신시장"
    },
    {
        "주소": "대구광역시 북구 산격동 1629",
        "지리정보": {
            "latitude": "35.9039970",
            "longitude": "128.6058348"
        },
        "시장정보": "산업용재관"
    },
    {
        "주소": "대구광역시 북구 산격동 1667",
        "지리정보": {
            "latitude": "35.9063176",
            "longitude": "128.6096330"
        },
        "시장정보": "섬유제품관"
    },
    {
        "주소": "대구광역시 북구 산격동 1665",
        "지리정보": {
            "latitude": "35.9053633",
            "longitude": "128.6075309"
        },
        "시장정보": "전기재료관"
    },
    {
        "주소": "대구광역시 북구 산격2동 1666",
        "지리정보": {
            "latitude": "35.9057073",
            "longitude": "128.6082861"
        },
        "시장정보": "전기조명관"
    },
    {
        "주소": "대구광역시 북구 산격동 1621",
        "지리정보": {
            "latitude": "35.9071354",
            "longitude": "128.6068548"
        },
        "시장정보": "전자관"
    },
    {
        "주소": "대구광역시 북구 산격동 1626",
        "지리정보": {
            "latitude": "35.9060128",
            "longitude": "128.6055203"
        },
        "시장정보": "전자상가"
    },
    {
        "주소": "대구광역시 북구 칠성동1가 97-1",
        "지리정보": {
            "latitude": "35.8754986",
            "longitude": "128.6043863"
        },
        "시장정보": "칠성본시장"
    },
    {
        "주소": "대구광역시 북구 칠성동2가 409-71",
        "지리정보": {
            "latitude": "35.8785959",
            "longitude": "128.6010460"
        },
        "시장정보": "칠성전자주방시장"
    },
    {
        "주소": "대구광역시 서구 평리동676-7",
        "지리정보": {
            "latitude": "35.8779998",
            "longitude": "128.5589642"
        },
        "시장정보": "대평리시장"
    },
    {
        "주소": "대구광역시 서구 내당2.3동 968-7",
        "지리정보": {
            "latitude": "35.8650362",
            "longitude": "128.5715996"
        },
        "시장정보": "새길시장"
    },
    {
        "주소": "대구광역시 서구 평리3동 1085-1",
        "지리정보": {
            "latitude": "35.8737820",
            "longitude": "128.5557177"
        },
        "시장정보": "서구시장"
    },
    {
        "주소": "대구광역시 서구 비산동 434-13",
        "지리정보": {
            "latitude": "35.8744715",
            "longitude": "128.5721807"
        },
        "시장정보": "서부시장"
    },
    {
        "주소": "대구광역시 서구 평리동 1205",
        "지리정보": {
            "latitude": "35.8680941",
            "longitude": "128.5606822"
        },
        "시장정보": "신평리시장"
    },
    {
        "주소": "대구광역시 서구 비산동 566-2",
        "지리정보": {
            "latitude": "35.8802503",
            "longitude": "128.5682929"
        },
        "시장정보": "원고개시장"
    },
    {
        "주소": "대구광역시 서구 원대동3가 1434-4",
        "지리정보": {
            "latitude": "35.8855046",
            "longitude": "128.5748503"
        },
        "시장정보": "원대신시장"
    },
    {
        "주소": "대구광역시 서구 평리동 606-8",
        "지리정보": {
            "latitude": "35.8769582",
            "longitude": "128.5507364"
        },
        "시장정보": "이현시장"
    },
    {
        "주소": "대구광역시 서구 평리동 1437-5",
        "지리정보": {
            "latitude": "35.8653710",
            "longitude": "128.5539055"
        },
        "시장정보": "중평시장"
    },
    {
        "주소": "대구광역시 수성구 수성2가 39-1",
        "지리정보": {
            "latitude": "35.8557162",
            "longitude": "128.6167894"
        },
        "시장정보": "동성시장"
    },
    {
        "주소": "대구광역시 수성구 수성2가 39-3",
        "지리정보": {
            "latitude": "35.8549908",
            "longitude": "128.6170296"
        },
        "시장정보": "수성시장"
    },
    {
        "주소": "대구광역시 수성구 신매동576-2",
        "지리정보": {
            "latitude": "35.8372885",
            "longitude": "128.7097118"
        },
        "시장정보": "신매시장"
    },
    {
        "주소": "대구광역시 수성구 지산동 1199-10",
        "지리정보": {
            "latitude": "35.8208592",
            "longitude": "128.6318707"
        },
        "시장정보": "지산목련시장(지산종합시장)"
    },
    {
        "주소": "대구광역시 수성구 만촌동 984-1",
        "지리정보": {
            "latitude": "35.8649407",
            "longitude": "128.6442281"
        },
        "시장정보": "청구시장"
    },
    {
        "주소": "대구광역시 수성구 수성2가 39-4",
        "지리정보": {
            "latitude": "35.8551035",
            "longitude": "128.6167362"
        },
        "시장정보": "태백시장"
    },
    {
        "주소": "대구광역시 수성구 황금동 746",
        "지리정보": {
            "latitude": "35.8483541",
            "longitude": "128.6199777"
        },
        "시장정보": "황금시장"
    },
    {
        "주소": "대구광역시 중구 교동 67-12",
        "지리정보": {
            "latitude": "35.8731378",
            "longitude": "128.5965936"
        },
        "시장정보": "교동시장"
    },
    {
        "주소": "대구광역시 중구 남산동 698-22",
        "지리정보": {
            "latitude": "35.8610561",
            "longitude": "128.5919663"
        },
        "시장정보": "남문시장"
    },
    {
        "주소": "대구광역시 중구 대신동 115-30",
        "지리정보": {
            "latitude": "35.8689559",
            "longitude": "128.5817236"
        },
        "시장정보": "동산상가"
    },
    {
        "주소": "대구광역시 중구 대신동 115-112",
        "지리정보": {
            "latitude": "35.8699058",
            "longitude": "128.5808467"
        },
        "시장정보": "명품프라자상가"
    },
    {
        "주소": "대구광역시 중구 대봉동",
        "지리정보": {
            "latitude": "35.861649",
            "longitude": "128.6043"
        },
        "시장정보": "방천시장"
    },
    {
        "주소": "대구광역시 중구 태평로1가 1-152",
        "지리정보": {
            "latitude": "35.8750266",
            "longitude": "128.5981253"
        },
        "시장정보": "번개시장"
    },
    {
        "주소": "대구광역시 중구 대신동 2105",
        "지리정보": {
            "latitude": "35.8688302",
            "longitude": "128.5795372"
        },
        "시장정보": "서문시장2지구종합상가"
    },
    {
        "주소": "대구광역시 중구 대신동115-400",
        "지리정보": {
            "latitude": "35.8680712",
            "longitude": "128.5784551"
        },
        "시장정보": "서문시장5지구"
    },
    {
        "주소": "대구광역시 중구 대신동 265-5",
        "지리정보": {
            "latitude": "35.8681434",
            "longitude": "128.5794865"
        },
        "시장정보": "서문시장건해산물상가"
    },
    {
        "주소": "대구광역시 중구 대신동 115-379 1층",
        "지리정보": {
            "latitude": "35.8693976",
            "longitude": "128.5798461"
        },
        "시장정보": "서문시장제1지구직물시장"
    },
    {
        "주소": "대구광역시 중구 대신동 115-379 2층",
        "지리정보": {
            "latitude": "35.8693976",
            "longitude": "128.5798461"
        },
        "시장정보": "서문시장제1지구포목시장"
    },
    {
        "주소": "대구광역시 중구 남성로 52-2",
        "지리정보": {
            "latitude": "35.8681249",
            "longitude": "128.5899224"
        },
        "시장정보": "약령시장"
    },
    {
        "주소": "대구광역시 중구 계산동2가 252",
        "지리정보": {
            "latitude": "35.8668999",
            "longitude": "128.5917256"
        },
        "시장정보": "염매시장"
    },
    {
        "주소": "대구광역시 중구 동산동 562",
        "지리정보": {
            "latitude": "35.8667052",
            "longitude": "128.5827111"
        },
        "시장정보": "서문시장4지구종합대체상가(베네시움)"
    },
    {
        "주소": "인천광역시 강화군 강화읍 신문리 205-5(A동), 관청리 523-3(B동)",
        "지리정보": {
            "latitude": "37.7468747",
            "longitude": "126.4838432"
        },
        "시장정보": "강화중앙시장(a동b동)"
    },
    {
        "주소": "인천광역시 강화군 남산리 222번지",
        "지리정보": {
            "latitude": "37.7397783",
            "longitude": "126.4903290"
        },
        "시장정보": "강화터미널상가"
    },
    {
        "주소": "인천광역시 강화군 강화읍 갑곳리 849",
        "지리정보": {
            "latitude": "37.7411373",
            "longitude": "126.4925155"
        },
        "시장정보": "강화풍물시장"
    },
    {
        "주소": "인천광역시 계양구 병방동 383",
        "지리정보": {
            "latitude": "37.5484241",
            "longitude": "126.7392188"
        },
        "시장정보": "계양산전통시장"
    },
    {
        "주소": "인천광역시 계양구 작전2동 862의1",
        "지리정보": {
            "latitude": "37.5324917",
            "longitude": "126.7243307"
        },
        "시장정보": "작전시장"
    },
    {
        "주소": "인천광역시 미추홀구 주안동 953-3",
        "지리정보": {
            "latitude": "37.4591630",
            "longitude": "126.6915922"
        },
        "시장정보": "석바위시장"
    },
    {
        "주소": "인천광역시 미추홀구 주안동 1311-17",
        "지리정보": {
            "latitude": "37.4463637",
            "longitude": "126.6784410"
        },
        "시장정보": "신기시장"
    },
    {
        "주소": "인천광역시 미추홀구 용현동 459-92",
        "지리정보": {
            "latitude": "37.4575812",
            "longitude": "126.6503877"
        },
        "시장정보": "용현시장"
    },
    {
        "주소": "인천광역시 미추홀구 주안동 1315-19",
        "지리정보": {
            "latitude": "37.4473708",
            "longitude": "126.6783893"
        },
        "시장정보": "인천남부종합시장"
    },
    {
        "주소": "인천광역시 미추홀구 용현동 4-2",
        "지리정보": {
            "latitude": "37.4518822",
            "longitude": "126.6659356"
        },
        "시장정보": "인천용남시장"
    },
    {
        "주소": "인천광역시 미추홀구 용현동 617-55",
        "지리정보": {
            "latitude": "37.4515424",
            "longitude": "126.6378153"
        },
        "시장정보": "토지금고시장"
    },
    {
        "주소": "인천광역시 미추홀구 학익동 270-3",
        "지리정보": {
            "latitude": "37.4431500",
            "longitude": "126.6649906"
        },
        "시장정보": "학익시장"
    },
    {
        "주소": "인천광역시 남동구 간석동 41-1",
        "지리정보": {
            "latitude": "37.4638682",
            "longitude": "126.7153983"
        },
        "시장정보": "간석자유시장"
    },
    {
        "주소": "인천광역시 남동구 구월동 1175-15",
        "지리정보": {
            "latitude": "37.4433273",
            "longitude": "126.7052425"
        },
        "시장정보": "구월도매전통시장"
    },
    {
        "주소": "인천광역시 남동구 구월동 1267-4",
        "지리정보": {
            "latitude": "37.4528893",
            "longitude": "126.7205349"
        },
        "시장정보": "구월시장"
    },
    {
        "주소": "인천광역시 남동구 구월동 1263-3",
        "지리정보": {
            "latitude": "37.4538661",
            "longitude": "126.7213368"
        },
        "시장정보": "인천모래내전통시장"
    },
    {
        "주소": "인천광역시 남동구 만수6동1082-1창대상가1동110호",
        "지리정보": {
            "latitude": "37.4466109",
            "longitude": "126.7352948"
        },
        "시장정보": "장승백이전통시장"
    },
    {
        "주소": "인천광역시 동구 송림동 50-95",
        "지리정보": {
            "latitude": "37.4770003",
            "longitude": "126.6452565"
        },
        "시장정보": "동부시장"
    },
    {
        "주소": "인천광역시 동구 송림동 296",
        "지리정보": {
            "latitude": "37.4840339",
            "longitude": "126.6613477"
        },
        "시장정보": "송림공구상가"
    },
    {
        "주소": "인천광역시 동구 송현동 88-19",
        "지리정보": {
            "latitude": "37.4762304",
            "longitude": "126.6346602"
        },
        "시장정보": "송현시장"
    },
    {
        "주소": "인천광역시 동구 송림동 294",
        "지리정보": {
            "latitude": "37.4859318",
            "longitude": "126.6550708"
        },
        "시장정보": "인천산업유통사업협동조합"
    },
    {
        "주소": "인천광역시 동구 송현동 100-12",
        "지리정보": {
            "latitude": "37.4753735",
            "longitude": "126.6333728"
        },
        "시장정보": "중앙시장"
    },
    {
        "주소": "인천광역시 동구 송림동 50-1",
        "지리정보": {
            "latitude": "37.4774845",
            "longitude": "126.6461280"
        },
        "시장정보": "현대시장"
    },
    {
        "주소": "인천광역시 부평구 부평동 201의141",
        "지리정보": {
            "latitude": "37.4940920",
            "longitude": "126.7250068"
        },
        "시장정보": "부평문화의거리"
    },
    {
        "주소": "인천광역시 부평구 부평동 360-1",
        "지리정보": {
            "latitude": "37.4964937",
            "longitude": "126.7266115"
        },
        "시장정보": "부평종합시장"
    },
    {
        "주소": "인천광역시 부평구 십정동 321-6",
        "지리정보": {
            "latitude": "37.4734782",
            "longitude": "126.6956012"
        },
        "시장정보": "십정종합시장(열우물전통시장)"
    },
    {
        "주소": "인천광역시 부평구 부평동 252-52",
        "지리정보": {
            "latitude": "37.4969952",
            "longitude": "126.7266653"
        },
        "시장정보": "진흥종합시장"
    },
    {
        "주소": "인천광역시 서구 가좌2동 30-48",
        "지리정보": {
            "latitude": "37.4935186",
            "longitude": "126.6843607"
        },
        "시장정보": "가좌시장"
    },
    {
        "주소": "인천광역시 서구 석남동 541-15",
        "지리정보": {
            "latitude": "37.5032747",
            "longitude": "126.6729580"
        },
        "시장정보": "신거북시장"
    },
    {
        "주소": "인천광역시 서구 석남동 454-19",
        "지리정보": {
            "latitude": "37.5111957",
            "longitude": "126.6719700"
        },
        "시장정보": "인천강남시장"
    },
    {
        "주소": "인천광역시 서구 가좌동 480-19",
        "지리정보": {
            "latitude": "37.4790517",
            "longitude": "126.6883672"
        },
        "시장정보": "인천축산물시장"
    },
    {
        "주소": "인천광역시 서구 가정동 505",
        "지리정보": {
            "latitude": "37.5186253",
            "longitude": "126.6732630"
        },
        "시장정보": "정서진중앙시장"
    },
    {
        "주소": "인천광역시 연수구 옥련동 462-32",
        "지리정보": {
            "latitude": "37.4246306",
            "longitude": "126.6468131"
        },
        "시장정보": "연수구옥련시장"
    },
    {
        "주소": "인천광역시 연수구 옥련동 308-18",
        "지리정보": {
            "latitude": "37.4264595",
            "longitude": "126.6577161"
        },
        "시장정보": "연수송도역전시장"
    },
    {
        "주소": "인천광역시 중구 선화동 29-10",
        "지리정보": {
            "latitude": "37.4660686",
            "longitude": "126.6366403"
        },
        "시장정보": "신흥시장"
    },
    {
        "주소": "인천광역시 중구 항동7가 27-69",
        "지리정보": {
            "latitude": "37.4541170",
            "longitude": "126.6065568"
        },
        "시장정보": "인천종합어시장"
    },
    {
        "주소": "광주광역시 광산구 송정동 971-1",
        "지리정보": {
            "latitude": "35.1355805",
            "longitude": "126.7915005"
        },
        "시장정보": "1913송정역시장(송정역전매일시장)"
    },
    {
        "주소": "광주광역시 광산구 비아동 83-5",
        "지리정보": {
            "latitude": "35.2212296",
            "longitude": "126.8252249"
        },
        "시장정보": "비아5일시장"
    },
    {
        "주소": "광주광역시 광산구 송정동 884-1",
        "지리정보": {
            "latitude": "35.1368724",
            "longitude": "126.7972044"
        },
        "시장정보": "송정5일시장"
    },
    {
        "주소": "광주광역시 광산구 송정동 813-1",
        "지리정보": {
            "latitude": "35.1375504",
            "longitude": "126.7972643"
        },
        "시장정보": "송정매일시장"
    },
    {
        "주소": "광주광역시 광산구 우산동 1612- 1",
        "지리정보": {
            "latitude": "35.1619368",
            "longitude": "126.8040719"
        },
        "시장정보": "우산매일시장"
    },
    {
        "주소": "광주광역시 광산구 월곡동 687-3",
        "지리정보": {
            "latitude": "35.1712290",
            "longitude": "126.8096577"
        },
        "시장정보": "월곡시장"
    },
    {
        "주소": "광주광역시 남구 주월동 974-107",
        "지리정보": {
            "latitude": "35.1361803",
            "longitude": "126.8944961"
        },
        "시장정보": "무등시장"
    },
    {
        "주소": "광주광역시 남구 봉선동 997-1",
        "지리정보": {
            "latitude": "35.1290321",
            "longitude": "126.9100049"
        },
        "시장정보": "봉선시장"
    },
    {
        "주소": "광주광역시 동구 학동 84-23",
        "지리정보": {
            "latitude": "35.1393148",
            "longitude": "126.9208190"
        },
        "시장정보": "남광주시장"
    },
    {
        "주소": "광주광역시 동구 학동 55-57",
        "지리정보": {
            "latitude": "35.1389444",
            "longitude": "126.9212179"
        },
        "시장정보": "남광주해뜨는시장"
    },
    {
        "주소": "광주광역시 동구 대인동 310-8",
        "지리정보": {
            "latitude": "35.1540123",
            "longitude": "126.9165340"
        },
        "시장정보": "대인시장"
    },
    {
        "주소": "광주광역시 동구 산수동 558-58",
        "지리정보": {
            "latitude": "35.1534824",
            "longitude": "126.9297386"
        },
        "시장정보": "산수시장"
    },
    {
        "주소": "광주광역시 북구 중흥동 272-6",
        "지리정보": {
            "latitude": "35.1738667",
            "longitude": "126.9163349"
        },
        "시장정보": "동부시장"
    },
    {
        "주소": "광주광역시 북구 두암동 856-5",
        "지리정보": {
            "latitude": "35.1716191",
            "longitude": "126.9293966"
        },
        "시장정보": "두암시장"
    },
    {
        "주소": "광주광역시 북구 우산동 190-1",
        "지리정보": {
            "latitude": "35.1729658",
            "longitude": "126.9213545"
        },
        "시장정보": "말바우시장"
    },
    {
        "주소": "광주광역시 북구 운암동 94-7",
        "지리정보": {
            "latitude": "35.1733622",
            "longitude": "126.8818423"
        },
        "시장정보": "운암시장"
    },
    {
        "주소": "광주광역시 서구 양동 5-101",
        "지리정보": {
            "latitude": "35.1542991",
            "longitude": "126.9020206"
        },
        "시장정보": "광주양동시장"
    },
    {
        "주소": "광주광역시 서구 양동 5-160",
        "지리정보": {
            "latitude": "35.1531749",
            "longitude": "126.9033283"
        },
        "시장정보": "양동건어물시장"
    },
    {
        "주소": "광주광역시 서구 양동 307-28",
        "지리정보": {
            "latitude": "35.1536694",
            "longitude": "126.9008564"
        },
        "시장정보": "양동경열로시장"
    },
    {
        "주소": "광주광역시 서구 양동 5-56",
        "지리정보": {
            "latitude": "35.1527792",
            "longitude": "126.9040445"
        },
        "시장정보": "양동닭전길시장"
    },
    {
        "주소": "광주광역시 서구 양동 441",
        "지리정보": {
            "latitude": "35.1523105",
            "longitude": "126.9056208"
        },
        "시장정보": "양동복개상가"
    },
    {
        "주소": "광주광역시 서구 양동 62의 1",
        "지리정보": {
            "latitude": "35.1511733",
            "longitude": "126.9066380"
        },
        "시장정보": "양동산업용품시장"
    },
    {
        "주소": "광주광역시 서구 양동 5-254",
        "지리정보": {
            "latitude": "35.1531231",
            "longitude": "126.9018123"
        },
        "시장정보": "양동수산전통시장"
    },
    {
        "주소": "광주광역시 서구 화정동783의5",
        "지리정보": {
            "latitude": "35.1531839",
            "longitude": "126.8799351"
        },
        "시장정보": "화정동서부시장"
    },
    {
        "주소": "대전광역시 대덕구 법동 200-7",
        "지리정보": {
            "latitude": "36.3662267",
            "longitude": "127.4315690"
        },
        "시장정보": "법동시장"
    },
    {
        "주소": "대전광역시 대덕구 송촌동 476-1",
        "지리정보": {
            "latitude": "36.3646362",
            "longitude": "127.4398921"
        },
        "시장정보": "송촌시장"
    },
    {
        "주소": "대전광역시 대덕구 석봉동 417-43",
        "지리정보": {
            "latitude": "36.4491778",
            "longitude": "127.4265319"
        },
        "시장정보": "신탄진시장"
    },
    {
        "주소": "대전광역시 대덕구 중리동 372-6",
        "지리정보": {
            "latitude": "36.3655880",
            "longitude": "127.4263908"
        },
        "시장정보": "중리시장"
    },
    {
        "주소": "대전광역시 동구 가양동 434",
        "지리정보": {
            "latitude": "36.3462382",
            "longitude": "127.4432072"
        },
        "시장정보": "가양시장"
    },
    {
        "주소": "대전광역시 동구 중동 76-1",
        "지리정보": {
            "latitude": "36.3302021",
            "longitude": "127.4329199"
        },
        "시장정보": "대전도매시장"
    },
    {
        "주소": "대전광역시 동구 인동 52-1",
        "지리정보": {
            "latitude": "36.3217980",
            "longitude": "127.4366245"
        },
        "시장정보": "대전상가시장"
    },
    {
        "주소": "대전광역시 동구 가양동 38-5",
        "지리정보": {
            "latitude": "36.3494743",
            "longitude": "127.4472474"
        },
        "시장정보": "신도시장"
    },
    {
        "주소": "대전광역시 동구 원동 40- 1",
        "지리정보": {
            "latitude": "36.3272978",
            "longitude": "127.4336340"
        },
        "시장정보": "신중앙시장"
    },
    {
        "주소": "대전광역시 동구 용운동 305-14",
        "지리정보": {
            "latitude": "36.3278106",
            "longitude": "127.4605777"
        },
        "시장정보": "용운시장"
    },
    {
        "주소": "대전광역시 동구 인동 30-2",
        "지리정보": {
            "latitude": "36.3225930",
            "longitude": "127.4359310"
        },
        "시장정보": "인동시장"
    },
    {
        "주소": "대전광역시 동구 원동 64-1",
        "지리정보": {
            "latitude": "36.3292005",
            "longitude": "127.4320547"
        },
        "시장정보": "자유도매시장"
    },
    {
        "주소": "대전광역시 동구 원동 20-49",
        "지리정보": {
            "latitude": "36.3298242",
            "longitude": "127.4337027"
        },
        "시장정보": "전통중앙도매상가"
    },
    {
        "주소": "대전광역시 동구 원동 51-1",
        "지리정보": {
            "latitude": "36.3295701",
            "longitude": "127.4331953"
        },
        "시장정보": "중앙도매시장"
    },
    {
        "주소": "대전광역시 동구 원동 42-1",
        "지리정보": {
            "latitude": "36.3267292",
            "longitude": "127.4339577"
        },
        "시장정보": "중앙메가프라자"
    },
    {
        "주소": "대전광역시 동구 중동 28-45",
        "지리정보": {
            "latitude": "36.3296146",
            "longitude": "127.4311274"
        },
        "시장정보": "중앙상가시장"
    },
    {
        "주소": "대전광역시 동구 원동 65-7",
        "지리정보": {
            "latitude": "36.3286670",
            "longitude": "127.4321606"
        },
        "시장정보": "중앙종합시장"
    },
    {
        "주소": "대전광역시 서구 도마동 132-13",
        "지리정보": {
            "latitude": "36.3158066",
            "longitude": "127.3813573"
        },
        "시장정보": "도마큰시장"
    },
    {
        "주소": "대전광역시 서구 괴정동 88-34",
        "지리정보": {
            "latitude": "36.3346149",
            "longitude": "127.3839819"
        },
        "시장정보": "한민시장"
    },
    {
        "주소": "대전광역시 유성구 송강동 49-10",
        "지리정보": {
            "latitude": "36.4351613",
            "longitude": "127.3866631"
        },
        "시장정보": "송강시장"
    },
    {
        "주소": "대전광역시 중구 문창동 116-8",
        "지리정보": {
            "latitude": "36.3156358",
            "longitude": "127.4383064"
        },
        "시장정보": "문창전통시장"
    },
    {
        "주소": "대전광역시 중구 부사동 148-6",
        "지리정보": {
            "latitude": "36.3141468",
            "longitude": "127.4353750"
        },
        "시장정보": "부사전통시장"
    },
    {
        "주소": "대전광역시 중구 산성동 285-1",
        "지리정보": {
            "latitude": "36.3065622",
            "longitude": "127.3871552"
        },
        "시장정보": "산성전통시장"
    },
    {
        "주소": "대전광역시 중구 오류동 162-16",
        "지리정보": {
            "latitude": "36.3219858",
            "longitude": "127.4079428"
        },
        "시장정보": "오류전통시장"
    },
    {
        "주소": "대전광역시 중구 용두동 12-2",
        "지리정보": {
            "latitude": "36.3234130",
            "longitude": "127.4146417"
        },
        "시장정보": "용두전통시장"
    },
    {
        "주소": "대전광역시 중구 유천동 303-10",
        "지리정보": {
            "latitude": "36.3170945",
            "longitude": "127.3954699"
        },
        "시장정보": "유천전통시장"
    },
    {
        "주소": "대전광역시 중구 태평동 333-8",
        "지리정보": {
            "latitude": "36.3258774",
            "longitude": "127.3979159"
        },
        "시장정보": "태평전통시장"
    },
    {
        "주소": "울산광역시 남구 신정동 630-1",
        "지리정보": {
            "latitude": "35.5423563",
            "longitude": "129.3102501"
        },
        "시장정보": "(주)신정시장"
    },
    {
        "주소": "울산광역시 남구 야음동 815-22",
        "지리정보": {
            "latitude": "35.5241888",
            "longitude": "129.3312031"
        },
        "시장정보": "(주)야음시장"
    },
    {
        "주소": "울산광역시 남구 야음동 697-9",
        "지리정보": {
            "latitude": "35.5268949",
            "longitude": "129.3207219"
        },
        "시장정보": "수암상가시장"
    },
    {
        "주소": "울산광역시 남구 야음동 698-1",
        "지리정보": {
            "latitude": "35.5276500",
            "longitude": "129.3207714"
        },
        "시장정보": "수암종합시장"
    },
    {
        "주소": "울산광역시 남구 신정동 616-1",
        "지리정보": {
            "latitude": "35.5430040",
            "longitude": "129.3101138"
        },
        "시장정보": "신정상가시장"
    },
    {
        "주소": "울산광역시 남구 신정동 1600-3 신정평화시장",
        "지리정보": {
            "latitude": "35.5383704",
            "longitude": "129.3035446"
        },
        "시장정보": "신정평화시장"
    },
    {
        "주소": "울산광역시 남구 야음동 815-10",
        "지리정보": {
            "latitude": "35.5236089",
            "longitude": "129.3318709"
        },
        "시장정보": "야음상가시장"
    },
    {
        "주소": "울산광역시 남구 야음동 375-55",
        "지리정보": {
            "latitude": "35.5202471",
            "longitude": "129.3367757"
        },
        "시장정보": "울산번개시장"
    },
    {
        "주소": "울산광역시 남구 삼산동 1591-4 울산산업공구월드",
        "지리정보": {
            "latitude": "35.5357751",
            "longitude": "129.3430999"
        },
        "시장정보": "울산산업공구월드"
    },
    {
        "주소": "울산광역시 동구 동부동 310-2 남목시장",
        "지리정보": {
            "latitude": "35.5427275",
            "longitude": "129.4273265"
        },
        "시장정보": "남목전통시장"
    },
    {
        "주소": "울산광역시 동구 화정동 171-4 농수산물유통센타",
        "지리정보": {
            "latitude": "35.4992212",
            "longitude": "129.4206584"
        },
        "시장정보": "대송농수산물시장"
    },
    {
        "주소": "울산광역시 동구 전하동 661-1",
        "지리정보": {
            "latitude": "35.5088417",
            "longitude": "129.4254206"
        },
        "시장정보": "동울산종합시장"
    },
    {
        "주소": "울산광역시 동구 화정동 647-2",
        "지리정보": {
            "latitude": "35.4947956",
            "longitude": "129.4240623"
        },
        "시장정보": "월봉시장"
    },
    {
        "주소": "울산광역시 북구 염포동 194-1",
        "지리정보": {
            "latitude": "35.5354742",
            "longitude": "129.3907367"
        },
        "시장정보": "염포시장(신전시장)"
    },
    {
        "주소": "울산광역시 북구 호계동 869-1 호계공설시장",
        "지리정보": {
            "latitude": "35.6235571",
            "longitude": "129.3556087"
        },
        "시장정보": "호계공설시장"
    },
    {
        "주소": "울산광역시 북구 화봉동 448-2",
        "지리정보": {
            "latitude": "35.5888237",
            "longitude": "129.3656908"
        },
        "시장정보": "화봉시장(화봉종합시장)"
    },
    {
        "주소": "울산광역시 울주군 웅촌면 곡천리320-2",
        "지리정보": {
            "latitude": "35.4656261",
            "longitude": "129.2097636"
        },
        "시장정보": "곡천공설시장"
    },
    {
        "주소": "울산광역시 울주군 온양읍 남창리 146 남창옹기종기시장",
        "지리정보": {
            "latitude": "35.4162983",
            "longitude": "129.2828404"
        },
        "시장정보": "남창옹기종기시장"
    },
    {
        "주소": "울산광역시 울주군 온산읍 덕신리 1280-21 덕신종합상설시장",
        "지리정보": {
            "latitude": "35.4352246",
            "longitude": "129.3093532"
        },
        "시장정보": "덕신1차시장"
    },
    {
        "주소": "울산광역시 울주군 덕신리429",
        "지리정보": {
            "latitude": "35.4293309",
            "longitude": "129.3100631"
        },
        "시장정보": "덕신2차시장"
    },
    {
        "주소": "울산광역시 울주군 청량읍 상남리 578 덕하시장",
        "지리정보": {
            "latitude": "35.4914358",
            "longitude": "129.3060446"
        },
        "시장정보": "덕하시장(덕하공설시장)"
    },