[
    {
        "시장정보": "청담삼익시장",
        "지번 주소": "서울특별시 강남구 청담동 134-20",
        "도로명 주소": "서울특별시 강남구 학동로 101길 26",
        "지리정보": {
            "latitude": "37.5223088",
            "longitude": "127.0577511"
        }
    },
    {
        "시장정보": "길동복조리시장",
        "지번 주소": "서울특별시 강동구 천호대로193길 37",
        "도로명 주소": "서울특별시 강동구 길동 400",
        "지리정보": {
            "latitude": "37.5370211",
            "longitude": "127.1437013"
        }
    },
    {
        "시장정보": "남부골목시장",
        "지번 주소": "서울특별시 강서구 화곡동 797-7",
        "도로명 주소": "서울특별시 강서구 곰달래로 55길4(화곡동)",
        "지리정보": {
            "latitude": "37.5322967",
            "longitude": "126.8608422"
        }
    },
    {
        "시장정보": "신림중앙시장",
        "지번 주소": "서울특별시 관악구 조원동 541",
        "도로명 주소": "서울특별시 관악구 조원로16길 27",
        "지리정보": {
            "latitude": "37.4832209",
            "longitude": "126.9114370"
        }
    },
    {
        "시장정보": "구로시장",
        "지번 주소": "서울특별시 구로구 구로동734-17 2층",
        "도로명 주소": "서울특별시 구로구 구로동로22길 17-4",
        "지리정보": {
            "latitude": "37.4896430",
            "longitude": "126.8856434"
        }
    },
    {
        "시장정보": "남구로시장",
        "지번 주소": "서울특별시 구로구 구로2동 730-52",
        "도로명 주소": "서울특별시 구로구 구로동로26길 41",
        "지리정보": {
            "latitude": "37.4902676",
            "longitude": "126.8864580"
        }
    },
    {
        "시장정보": "비단길현대시장",
        "지번 주소": "서울특별시 금천구 시흥동 828-45",
        "도로명 주소": "서울특별시 금천구 독산로 27길 52",
        "지리정보": {
            "latitude": "37.4513633",
            "longitude": "126.9093480"
        }
    },
    {
        "시장정보": "경동시장",
        "지번 주소": "서울특별시 동대문구 제기동 1015",
        "도로명 주소": "서울특별시 동대문구 왕산로 147",
        "지리정보": {
            "latitude": "37.5787794",
            "longitude": "127.0396774"
        }
    },
    {
        "시장정보": "서울약령시장",
        "지번 주소": "서울특별시 동대문구  제기동 1082",
        "도로명 주소": "서울특별시 동대문구 약령중앙로26",
        "지리정보": {
            "latitude": "37.5806721",
            "longitude": "127.0376428"
        }
    },
    {
        "시장정보": "청량리청과물시장",
        "지번 주소": "서울특별시 동대문구 제기동 995",
        "도로명 주소": "서울특별시 동대문구 경동시장로 7",
        "지리정보": {
            "latitude": "37.5795796",
            "longitude": "127.0407541"
        }
    },
    {
        "시장정보": "남성시장",
        "지번 주소": "서울특별시 동작구 사당동 88-3",
        "도로명 주소": "서울특별시 동작구 동작대로29길 8(사당동)",
        "지리정보": {
            "latitude": "37.4881637",
            "longitude": "126.9815591"
        }
    },
    {
        "시장정보": "공덕시장",
        "지번 주소": "서울특별시 마포구 공덕동 256-10",
        "도로명 주소": "서울특별시 마포구 만리재로 19 (공덕동)",
        "지리정보": {
            "latitude": "37.5448119",
            "longitude": "126.9533786"
        }
    },
    {
        "시장정보": "아현시장",
        "지번 주소": "서울특별시 마포구 아현동 327-40",
        "도로명 주소": "서울특별시 마포구 아현동 굴레방로 7길 8",
        "지리정보": {
            "latitude": "37.5563938",
            "longitude": "126.9550612"
        }
    },
    {
        "시장정보": "인왕시장",
        "지번 주소": "서울특별시 서대문구 홍제3동 298-7",
        "도로명 주소": "서울특별시 서대문구 인왕시장길 24(홍제동)",
        "지리정보": {
            "latitude": "37.5910687",
            "longitude": "126.9432056"
        }
    },
    {
        "시장정보": "마장축산물시장",
        "지번 주소": "서울특별시 성동구 마장동 439-1, 4층",
        "도로명 주소": "서울특별시 성동구 마장로35길 68, 4층",
        "지리정보": {
            "latitude": "37.5706640",
            "longitude": "127.0412886"
        }
    },
    {
        "시장정보": "용답상가시장",
        "지번 주소": "서울특별시 성동구 용답동 57-17",
        "도로명 주소": "서울특별시 성동구 용답중앙길 59",
        "지리정보": {
            "latitude": "37.5641836",
            "longitude": "127.0525641"
        }
    },
    {
        "시장정보": "풍납시장",
        "지번 주소": "서울특별시 송파구 풍납동 142-1",
        "도로명 주소": "서울특별시 송파구 바람드리길 34(풍납동)",
        "지리정보": {
            "latitude": "37.5375689",
            "longitude": "127.1194939"
        }
    },
    {
        "시장정보": "대신시장",
        "지번 주소": "서울특별시 영등포구 신길동 116-15",
        "도로명 주소": "서울특별시 영등포구 도신로 60길 7",
        "지리정보": {
            "latitude": "37.5110955",
            "longitude": "126.9175960"
        }
    },
    {
        "시장정보": "용산용문시장",
        "지번 주소": "서울특별시 용산구 효창원로40길 13",
        "도로명 주소": "서울특별시 용산구 효창원로40길 13(용문동)",
        "지리정보": {
            "latitude": "37.5366334",
            "longitude": "126.9597889"
        }
    },
    {
        "시장정보": "광장시장",
        "지번 주소": "서울특별시 종로구 예지동 2-1",
        "도로명 주소": "서울특별시 종로구 창경궁로 88",
        "지리정보": {
            "latitude": "37.5703015",
            "longitude": "126.9987116"
        }
    },
    {
        "시장정보": "동대문종합시장",
        "지번 주소": "서울특별시 종로구 종로6가 289-3 동대",
        "도로명 주소": "서울특별시 종로구 종로 266 동대문종합시장",
        "지리정보": {
            "latitude": "37.5703939",
            "longitude": "127.0089121"
        }
    },
    {
        "시장정보": "동대문종합시장D동상가",
        "지번 주소": "서울특별시 종로구 종로6가 262-1 동대문종합시장디동",
        "도로명 주소": "서울특별시 종로구 종로266종합시장디동",
        "지리정보": {
            "latitude": "37.5708030",
            "longitude": "127.0069193"
        }
    },
    {
        "시장정보": "동문시장㈜",
        "지번 주소": "서울특별시 종로구 창신동 436-41 동문상가",
        "도로명 주소": "서울특별시 종로구 종로44길 14",
        "지리정보": {
            "latitude": "37.5704515",
            "longitude": "127.0113908"
        }
    },
    {
        "시장정보": "신설종합시장",
        "지번 주소": "서울특별시 종로구 숭인동 206-9 신설종합시장",
        "도로명 주소": "서울특별시 종로구 난계로27길 51",
        "지리정보": {
            "latitude": "37.5726722",
            "longitude": "127.0203594"
        }
    },
    {
        "시장정보": "한일상가",
        "지번 주소": "서울특별시 종로구 종로5가 314-7 청오가방도매상가",
        "도로명 주소": "서울특별시 종로구 청계천로 229(종로5가)",
        "지리정보": {
            "latitude": "37.5701085",
            "longitude": "127.0030434"
        }
    },
    {
        "시장정보": "동대문종합시장 신관(동대문쇼핑타운)",
        "지번 주소": "서울특별시 종로구 종로 266 동대문종합시장 신관지하1층81호",
        "도로명 주소": "서울특별시 종로구 종로 272(종로6가)",
        "지리정보": {
            "latitude": "37.5707065",
            "longitude": "127.0073287"
        }
    },
    {
        "시장정보": "광희패션몰",
        "지번 주소": "서울특별시 중구 신당동 777 광희시장",
        "도로명 주소": "서울특별시 중구 마장로1길 21",
        "지리정보": {
            "latitude": "37.5686547",
            "longitude": "127.0119141"
        }
    },
    {
        "시장정보": "남대문시장",
        "지번 주소": "서울특별시 중구 남창동 49-1",
        "도로명 주소": "서울특별시 중구 남대문시장4길 21",
        "지리정보": {
            "latitude": "37.5594165",
            "longitude": "126.9779413"
        }
    },
    {
        "시장정보": "남평화시장",
        "지번 주소": "서울특별시 중구 신당동 772 남평화시장",
        "도로명 주소": "서울특별시 중구 장충단로 282-10(신당동)",
        "지리정보": {
            "latitude": "37.5691897",
            "longitude": "127.0108985"
        }
    },
    {
        "시장정보": "대림상가",
        "지번 주소": "서울특별시 중구 을지로 4가 157번지",
        "도로명 주소": "서울특별시 중구 을지로 201(을지로4가)",
        "지리정보": {
            "latitude": "37.5669383",
            "longitude": "127.0004019"
        }
    },
    {
        "시장정보": "동평화시장",
        "지번 주소": "서울특별시 중구 신당동 217-92 동평화의류상가",
        "도로명 주소": "서울특별시 중구 청계천로 318 동평화시장 7층",
        "지리정보": {
            "latitude": "37.5694788",
            "longitude": "127.0139448"
        }
    },
    {
        "시장정보": "동화상가",
        "지번 주소": "서울특별시 중구 을지로6가 17-415",
        "도로명 주소": "서울특별시 중구 장충단로13길 34 동화상가",
        "지리정보": {
            "latitude": "37.5686150",
            "longitude": "127.0069340"
        }
    },
    {
        "시장정보": "방산종합시장",
        "지번 주소": "서울특별시 중구 주교동 19-1 방산종합시장",
        "도로명 주소": "서울특별시 중구 동호로37길 20(주교동)",
        "지리정보": {
            "latitude": "37.5687043",
            "longitude": "127.0008111"
        }
    },
    {
        "시장정보": "에리어식스(벨포스트)",
        "지번 주소": "서울특별시 중구 신당동 776 서울운동장 평화시장",
        "도로명 주소": "서울특별시 중구 마장로 19(신당동)",
        "지리정보": {
            "latitude": "37.5681513",
            "longitude": "127.0120037"
        }
    },
    {
        "시장정보": "삼익패션타운",
        "지번 주소": "서울특별시 중구 남창동 5 삼익패션타운",
        "도로명 주소": "서울특별시 중구 남대문시장 8길 7 삼익패션타운",
        "지리정보": {
            "latitude": "37.5601789",
            "longitude": "126.9789772"
        }
    },
    {
        "시장정보": "서울중앙시장",
        "지번 주소": "서울특별시 중구 황학동 442",
        "도로명 주소": "서울특별시 중구 퇴계로 85길 36",
        "지리정보": {
            "latitude": "37.5673964",
            "longitude": "127.0197808"
        }
    },
    {
        "시장정보": "숭례문수입상가",
        "지번 주소": "서울특별시 중구 남창동 51-1 롯데손해보험빌딩",
        "도로명 주소": "서울특별시 중구 소월로 3",
        "지리정보": {
            "latitude": "37.5594320",
            "longitude": "126.9762306"
        }
    },
    {
        "시장정보": "신중부시장",
        "지번 주소": "서울특별시 중구 오장동 44-8 중부빌딩",
        "도로명 주소": "서울특별시 중구 을지로30길 29(오장동)",
        "지리정보": {
            "latitude": "37.5655159",
            "longitude": "126.9995253"
        }
    },
    {
        "시장정보": "신평화패션타운",
        "지번 주소": "서울특별시 중구 신당동 217-1 신평화상가",
        "도로명 주소": "서울특별시 중구 청계천로 298(신당동)",
        "지리정보": {
            "latitude": "37.5694444",
            "longitude": "127.0115766"
        }
    },
    {
        "시장정보": "약수시장",
        "지번 주소": "서울특별시 중구 신당동 368-54",
        "도로명 주소": "서울특별시 중구 다산로 114-7(신당동)",
        "지리정보": {
            "latitude": "37.5540255",
            "longitude": "127.0107698"
        }
    },
    {
        "시장정보": "자유상가",
        "지번 주소": "서울특별시 중구 회현동1가 202-1",
        "도로명 주소": "서울특별시 중구 남대문로 36(회현동1가)",
        "지리정보": {
            "latitude": "37.5612220",
            "longitude": "126.9801455"
        }
    },
    {
        "시장정보": "제일평화시장",
        "지번 주소": "서울특별시 중구 신당동 775 제일평화시장",
        "도로명 주소": "서울특별시 중구 마장로 13(신당동)",
        "지리정보": {
            "latitude": "37.5684668",
            "longitude": "127.0114130"
        }
    },
    {
        "시장정보": "청평화시장",
        "지번 주소": "서울특별시 중구 신당동 217-91 청평화시장",
        "도로명 주소": "서울특별시 중구 청계천로 334(신당동)",
        "지리정보": {
            "latitude": "37.5694828",
            "longitude": "127.0149512"
        }
    },
    {
        "시장정보": "통일상가",
        "지번 주소": "서울특별시 중구 을지로6가 17-18",
        "도로명 주소": "서울특별시 중구 청계천로 260-14",
        "지리정보": {
            "latitude": "37.5688578",
            "longitude": "127.0063231"
        }
    },
    {
        "시장정보": "평화시장",
        "지번 주소": "서울특별시 중구 을지로6가 17-48",
        "도로명 주소": "서울특별시 중구 청계천로 274",
        "지리정보": {
            "latitude": "37.5694663",
            "longitude": "127.0080847"
        }
    },
    {
        "시장정보": "신아타운",
        "지번 주소": "서울특별시 중랑구 신내동 666 신아타운",
        "도로명 주소": "서울특별시 중랑구 봉화산로 194(신내동)",
        "지리정보": {
            "latitude": "37.6064215",
            "longitude": "127.0947460"
        }
    },
    {
        "시장정보": "서동전통골목시장",
        "지번 주소": "부산광역시 금정구 서3동 338-7",
        "도로명 주소": "부산광역시 금정구 서동로 143",
        "지리정보": {
            "latitude": "35.2152324",
            "longitude": "129.1025365"
        }
    },
    {
        "시장정보": "서동향토시장",
        "지번 주소": "부산광역시 금정구 서동 194-1",
        "도로명 주소": "부산광역시 금정구 서부로 21-1",
        "지리정보": {
            "latitude": "35.2159376",
            "longitude": "129.1033272"
        }
    },
    {
        "시장정보": "동성하이타운시장",
        "지번 주소": "부산광역시 남구 대연1동 1756-9",
        "도로명 주소": "부산광역시 남구 천제등로11",
        "지리정보": {
            "latitude": "35.1336053",
            "longitude": "129.0875046"
        }
    },
    {
        "시장정보": "못골골목시장",
        "지번 주소": "부산광역시 남구 대연5동 1416-23",
        "도로명 주소": "부산광역시 남구 못골로 66-1",
        "지리정보": {
            "latitude": "35.1358531",
            "longitude": "129.0896374"
        }
    },
    {
        "시장정보": "부산자유시장",
        "지번 주소": "부산광역시 동구 범일동 830-24",
        "도로명 주소": "부산광역시 동구 조방로 48",
        "지리정보": {
            "latitude": "35.1409810",
            "longitude": "129.0610662"
        }
    },
    {
        "시장정보": "부산남문시장",
        "지번 주소": "부산광역시 동구 범일동 290-3",
        "도로명 주소": "부산광역시 동구 범일로65번길 8",
        "지리정보": {
            "latitude": "35.1358930",
            "longitude": "129.0587242"
        }
    },
    {
        "시장정보": "부산진시장",
        "지번 주소": "부산광역시 동구 범일동 290- 1",
        "도로명 주소": "부산광역시 동구 진시장로 24",
        "지리정보": {
            "latitude": "35.1362089",
            "longitude": "129.0587077"
        }
    },
    {
        "시장정보": "초량전통시장",
        "지번 주소": "부산광역시 동구 초량동 308- 1",
        "도로명 주소": "부산광역시 동구 초량로13번길 24",
        "지리정보": {
            "latitude": "35.1180527",
            "longitude": "129.0396471"
        }
    },
    {
        "시장정보": "동래시장",
        "지번 주소": "부산광역시 동래구 복천동 229-42",
        "도로명 주소": "부산광역시 동래구 동래시장길14",
        "지리정보": {
            "latitude": "35.2037403",
            "longitude": "129.0863498"
        }
    },
    {
        "시장정보": "수안인정시장",
        "지번 주소": "부산광역시 동래구 수안동275-2",
        "도로명 주소": "부산광역시 동래구 충렬대로245번길 8",
        "지리정보": {
            "latitude": "35.2015104",
            "longitude": "129.0865767"
        }
    },
    {
        "시장정보": "개금골목시장",
        "지번 주소": "부산광역시 부산진구 개금동 173-2",
        "도로명 주소": "부산광역시 부산진구 가야공원로 14번길 85",
        "지리정보": {
            "latitude": "35.1519011",
            "longitude": "129.0248031"
        }
    },
    {
        "시장정보": "부산평화시장",
        "지번 주소": "부산광역시 부산진구 범천1동 839-52",
        "도로명 주소": "부산광역시 부산진구 자유평화로 7",
        "지리정보": {
            "latitude": "35.1420050",
            "longitude": "129.0609589"
        }
    },
    {
        "시장정보": "부전농수산물새벽시장",
        "지번 주소": "부산광역시 부산진구 부전동 347-1",
        "도로명 주소": "부산광역시 부산진구 부전로 156",
        "지리정보": {
            "latitude": "35.1622602",
            "longitude": "129.0583035"
        }
    },
    {
        "시장정보": "부전상가",
        "지번 주소": "부산광역시 부산진구 부전동 265-25",
        "도로명 주소": "부산광역시 부산진구 중앙대로 755번길 21",
        "지리정보": {
            "latitude": "35.1603569",
            "longitude": "129.0595510"
        }
    },
    {
        "시장정보": "부전시장",
        "지번 주소": "부산광역시 부산진구 부전동 573-3",
        "도로명 주소": "부산광역시 부산진구 중앙대로 783번길 23",
        "지리정보": {
            "latitude": "35.1633454",
            "longitude": "129.0610308"
        }
    },
    {
        "시장정보": "서면시장",
        "지번 주소": "부산광역시 부산진구 부전동 256-6",
        "도로명 주소": "부산광역시 부산진구 서면로 56",
        "지리정보": {
            "latitude": "35.1556420",
            "longitude": "129.0581363"
        }
    },
    {
        "시장정보": "서면종합시장",
        "지번 주소": "부산광역시 부산진구 부전동 347-40",
        "도로명 주소": "부산광역시 부산진구 부전로 162번길 28",
        "지리정보": {
            "latitude": "35.1619704",
            "longitude": "129.0589557"
        }
    },
    {
        "시장정보": "서면중앙시장",
        "지번 주소": "부산광역시 부산진구 전포2동 608-1",
        "도로명 주소": "부산광역시 부산진구 동성로 143",
        "지리정보": {
            "latitude": "35.1608924",
            "longitude": "129.0633194"
        }
    },
    {
        "시장정보": "구포축산물도매시장",
        "지번 주소": "부산광역시 북구 구포2동 1188-3번지",
        "도로명 주소": "부산광역시 북구 사상로583번길 25",
        "지리정보": {
            "latitude": "35.1961847",
            "longitude": "128.9891875"
        }
    },
    {
        "시장정보": "정이있는구포시장",
        "지번 주소": "부산광역시 북구 구포1동 599-15",
        "도로명 주소": "부산광역시 북구 구포시장2길 8",
        "지리정보": {
            "latitude": "35.2088806",
            "longitude": "129.0039089"
        }
    },
    {
        "시장정보": "르네시떼시장",
        "지번 주소": "부산광역시 사상구 괘법동 529-1",
        "도로명 주소": "부산광역시 사상구 광장로7",
        "지리정보": {
            "latitude": "35.1643049",
            "longitude": "128.9778178"
        }
    },
    {
        "시장정보": "복이있는덕포시장",
        "지번 주소": "부산광역시 사상구 덕포동 421-13",
        "도로명 주소": "부산광역시 사상구 사상로293번길12",
        "지리정보": {
            "latitude": "35.1713083",
            "longitude": "128.9822708"
        }
    },
    {
        "시장정보": "부산산업용재유통상가",
        "지번 주소": "부산광역시 사상구 감전동 152-2",
        "도로명 주소": "부산광역시 사상구 새벽로 131",
        "지리정보": {
            "latitude": "35.1532383",
            "longitude": "128.9814231"
        }
    },
    {
        "시장정보": "부산산업용품상협동조합",
        "지번 주소": "부산광역시 사상구 괘법동 578",
        "도로명 주소": "부산광역시 사상구 괘감로 37",
        "지리정보": {
            "latitude": "35.1597706",
            "longitude": "128.9794944"
        }
    },
    {
        "시장정보": "부산새벽시장",
        "지번 주소": "부산광역시 사상구 감전동 143-16",
        "도로명 주소": "부산광역시 사상구 새벽로 141",
        "지리정보": {
            "latitude": "35.1539045",
            "longitude": "128.9815883"
        }
    },
    {
        "시장정보": "사상시장",
        "지번 주소": "부산광역시 사상구 괘법동 379-1",
        "도로명 주소": "부산광역시 사상구 사상로250번길58(괘법동)",
        "지리정보": {
            "latitude": "35.1666587",
            "longitude": "128.9855050"
        }
    },
    {
        "시장정보": "우신종합상가",
        "지번 주소": "부산광역시 사상구 모라동 1362",
        "도로명 주소": "부산광역시 사상구 백양대로 880",
        "지리정보": {
            "latitude": "35.1839065",
            "longitude": "128.9919849"
        }
    },
    {
        "시장정보": "괴정골목시장",
        "지번 주소": "부산광역시 사하구 사하로 198",
        "도로명 주소": "부산광역시 사하구 사하로 198",
        "지리정보": {
            "latitude": "35.0993400",
            "longitude": "128.9937133"
        }
    },
    {
        "시장정보": "다대씨-파크",
        "지번 주소": "부산광역시 사하구 다대동 680-2",
        "도로명 주소": "부산광역시 사하구 다대동로 20",
        "지리정보": {
            "latitude": "35.0551057",
            "longitude": "128.9719660"
        }
    },
    {
        "시장정보": "충무동골목시장",
        "지번 주소": "부산광역시 서구 충무동1가 38-32",
        "도로명 주소": "부산광역시 서구 충무대로267번길 5(충무동1가)",
        "지리정보": {
            "latitude": "35.0942904",
            "longitude": "129.0236448"
        }
    },
    {
        "시장정보": "충무동해안시장",
        "지번 주소": "부산광역시 서구 충무동 1가 43-1",
        "도로명 주소": "부산광역시 서구 자갈치로 14-12(충무동1가)",
        "지리정보": {
            "latitude": "35.0956455",
            "longitude": "129.0250908"
        }
    },
    {
        "시장정보": "남천해변시장",
        "지번 주소": "부산광역시 수영구 남천동556",
        "도로명 주소": "부산광역시 수영구 광안해변로15번길 77",
        "지리정보": {
            "latitude": "35.1392230",
            "longitude": "129.1090724"
        }
    },
    {
        "시장정보": "남항시장",
        "지번 주소": "부산광역시 영도구 영선동2가 64-6",
        "도로명 주소": "부산광역시 영도구 절영로 49번길 73-5",
        "지리정보": {
            "latitude": "35.0889115",
            "longitude": "129.0422603"
        }
    },
    {
        "시장정보": "국제시장",
        "지번 주소": "부산광역시 중구 신창동 4가",
        "도로명 주소": "부산광역시 중구 중구로 국제시장 2길 25호 2공구 서동 3층",
        "지리정보": {
            "latitude": "35.1012786",
            "longitude": "129.0282303"
        }
    },
    {
        "시장정보": "부평깡통시장",
        "지번 주소": "부산광역시 중구 부평동2가 16",
        "도로명 주소": "부산광역시 중구 부평1길",
        "지리정보": {
            "latitude": "35.1015483",
            "longitude": "129.0260196"
        }
    },
    {
        "시장정보": "신동아수산물종합시장",
        "지번 주소": "부산광역시 중구 남포동5가 92",
        "도로명 주소": "부산광역시 중구 자갈치로 42",
        "지리정보": {
            "latitude": "35.0968524",
            "longitude": "129.0290786"
        }
    },
    {
        "시장정보": "신창상가",
        "지번 주소": "부산광역시 중구 신창동1가 19-2",
        "도로명 주소": "부산광역시 중구 중구로34번길 21-1",
        "지리정보": {
            "latitude": "35.1011832",
            "longitude": "129.0302021"
        }
    },
    {
        "시장정보": "신천지시장",
        "지번 주소": "부산광역시 중구 남포동6가 3",
        "도로명 주소": "부산광역시 중구 자갈치로 33",
        "지리정보": {
            "latitude": "35.0970501",
            "longitude": "129.0278135"
        }
    },
    {
        "시장정보": "아리랑거리",
        "지번 주소": "부산광역시 중구 신창동 3가 17-1",
        "도로명 주소": "부산광역시 중구 중구로30번길 12",
        "지리정보": {
            "latitude": "35.1004627",
            "longitude": "129.0289715"
        }
    },
    {
        "시장정보": "월드밸리",
        "지번 주소": "부산광역시 중구 부평동2가 2",
        "도로명 주소": "부산광역시 중구 대청로 60",
        "지리정보": {
            "latitude": "35.1028243",
            "longitude": "129.0263593"
        }
    },
    {
        "시장정보": "자갈치시장",
        "지번 주소": "부산광역시 중구 남포동4가 37-1",
        "도로명 주소": "부산광역시 중구 자갈치해안로 52번길",
        "지리정보": {
            "latitude": "35.0967415",
            "longitude": "129.0311144"
        }
    },
    {
        "시장정보": "반송큰시장(반송2동시장)",
        "지번 주소": "부산광역시 해운대구 반송2동 40-762",
        "도로명 주소": "부산광역시 해운대구 윗반송로51번길 86",
        "지리정보": {
            "latitude": "35.2311235",
            "longitude": "129.1562233"
        }
    },
    {
        "시장정보": "관문상가시장",
        "지번 주소": "대구광역시 남구 대명동 1135-4",
        "도로명 주소": "대구광역시 남구 월배로 494",
        "지리정보": {
            "latitude": "35.8365518",
            "longitude": "128.5573082"
        }
    },
    {
        "시장정보": "달서시장",
        "지번 주소": "대구광역시 달서구 본리동 145-2.-5번지",
        "도로명 주소": "대구광역시 달서구 당산로 35",
        "지리정보": {
            "latitude": "35.8404137",
            "longitude": "128.5441878"
        }
    },
    {
        "시장정보": "월배시장",
        "지번 주소": "대구광역시 달서구 진천동 241-3",
        "도로명 주소": "대구광역시 달서구 월배로24길 13",
        "지리정보": {
            "latitude": "35.8140380",
            "longitude": "128.5275136"
        }
    },
    {
        "시장정보": "산격종합시장",
        "지번 주소": "대구광역시 북구 산격동 1258",
        "도로명 주소": "대구광역시 북구 대동로1길 34",
        "지리정보": {
            "latitude": "35.8984123",
            "longitude": "128.6105172"
        }
    },
    {
        "시장정보": "칠성시장",
        "지번 주소": "대구광역시 북구 칠성동1가 276-163",
        "도로명 주소": "대구광역시 북구 칠성남로 229",
        "지리정보": {
            "latitude": "35.8763055",
            "longitude": "128.6053736"
        }
    },
    {
        "시장정보": "팔달신시장",
        "지번 주소": "대구광역시 북구 노원동3가",
        "도로명 주소": "대구광역시 북구 팔달로33길5-9",
        "지리정보": {
            "latitude": "35.8964",
            "longitude": "128.5674"
        }
    },
    {
        "시장정보": "산업용재관",
        "지번 주소": "대구광역시 북구 산격동 1629",
        "도로명 주소": "대구광역시 북구 유통단지로 16",
        "지리정보": {
            "latitude": "35.9039970",
            "longitude": "128.6058348"
        }
    },
    {
        "시장정보": "전자관",
        "지번 주소": "대구광역시 북구 산격동 1621",
        "도로명 주소": "대구광역시 북구 유통단지로 45 전자관",
        "지리정보": {
            "latitude": "35.9071354",
            "longitude": "128.6068548"
        }
    },
    {
        "시장정보": "전자상가",
        "지번 주소": "대구광역시 북구 산격동 1626",
        "도로명 주소": "대구광역시 북구 유통단지로25",
        "지리정보": {
            "latitude": "35.9060128",
            "longitude": "128.6055203"
        }
    },
    {
        "시장정보": "신매시장",
        "지번 주소": "대구광역시 수성구 신매동576-2",
        "도로명 주소": "대구광역시 수성구 신매로16길 24-4(신매동)",
        "지리정보": {
            "latitude": "35.8372885",
            "longitude": "128.7097118"
        }
    },
    {
        "시장정보": "남문시장",
        "지번 주소": "대구광역시 중구 남산동 698-22",
        "도로명 주소": "대구광역시 중구 명륜로70",
        "지리정보": {
            "latitude": "35.8610561",
            "longitude": "128.5919663"
        }
    },
    {
        "시장정보": "동산상가",
        "지번 주소": "대구광역시 중구 대신동 115-30",
        "도로명 주소": "대구광역시 중구 큰장로26길 65",
        "지리정보": {
            "latitude": "35.8689559",
            "longitude": "128.5817236"
        }
    },
    {
        "시장정보": "명품프라자상가",
        "지번 주소": "대구광역시 중구 대신동 115-112",
        "도로명 주소": "대구광역시 중구 큰장로 28길 27",
        "지리정보": {
            "latitude": "35.8699058",
            "longitude": "128.5808467"
        }
    },
    {
        "시장정보": "서문시장2지구종합상가",
        "지번 주소": "대구광역시 중구 대신동 2105",
        "도로명 주소": "대구광역시 중구 큰장로26길25",
        "지리정보": {
            "latitude": "35.8688302",
            "longitude": "128.5795372"
        }
    },
    {
        "시장정보": "서문시장5지구",
        "지번 주소": "대구광역시 중구 대신동115-400",
        "도로명 주소": "대구광역시 중구 큰장로26길 6",
        "지리정보": {
            "latitude": "35.8680712",
            "longitude": "128.5784551"
        }
    },
    {
        "시장정보": "서문시장제1지구직물시장",
        "지번 주소": "대구광역시 중구 대신동 115-379 1층",
        "도로명 주소": "대구광역시 중구 큰장로28길10 1층",
        "지리정보": {
            "latitude": "35.8693976",
            "longitude": "128.5798461"
        }
    },
    {
        "시장정보": "서문시장제1지구포목시장",
        "지번 주소": "대구광역시 중구 대신동 115-379 2층",
        "도로명 주소": "대구광역시 중구 큰장로28길10 2층",
        "지리정보": {
            "latitude": "35.8693976",
            "longitude": "128.5798461"
        }
    },
    {
        "시장정보": "약령시장",
        "지번 주소": "대구광역시 중구 남성로 52-2",
        "도로명 주소": "대구광역시 중구 남성로 27-1",
        "지리정보": {
            "latitude": "35.8681249",
            "longitude": "128.5899224"
        }
    },
    {
        "시장정보": "서문시장4지구종합대체상가(베네시움)",
        "지번 주소": "대구광역시 중구 동산동 562",
        "도로명 주소": "대구광역시 중구 달성로 18",
        "지리정보": {
            "latitude": "35.8667052",
            "longitude": "128.5827111"
        }
    },
    {
        "시장정보": "강화풍물시장",
        "지번 주소": "인천광역시 강화군 강화읍 갑곳리 849",
        "도로명 주소": "인천광역시 강화군 강화읍 중앙로 17-9",
        "지리정보": {
            "latitude": "37.7411373",
            "longitude": "126.4925155"
        }
    },
    {
        "시장정보": "석바위시장",
        "지번 주소": "인천광역시 미추홀구 주안동 953-3",
        "도로명 주소": "인천광역시 미추홀구 경인로 471번길 7",
        "지리정보": {
            "latitude": "37.4591630",
            "longitude": "126.6915922"
        }
    },
    {
        "시장정보": "용현시장",
        "지번 주소": "인천광역시 미추홀구 용현동 459-92",
        "도로명 주소": "인천광역시 미추홀구 용삼길 13",
        "지리정보": {
            "latitude": "37.4575812",
            "longitude": "126.6503877"
        }
    },
    {
        "시장정보": "인천모래내전통시장",
        "지번 주소": "인천광역시 남동구 구월동 1263-3",
        "도로명 주소": "인천광역시 남동구 구월로276번길 39",
        "지리정보": {
            "latitude": "37.4538661",
            "longitude": "126.7213368"
        }
    },
    {
        "시장정보": "송림공구상가",
        "지번 주소": "인천광역시 동구 송림동 296",
        "도로명 주소": "인천광역시 동구 봉수대로 98",
        "지리정보": {
            "latitude": "37.4840339",
            "longitude": "126.6613477"
        }
    },
    {
        "시장정보": "인천산업유통사업협동조합",
        "지번 주소": "인천광역시 동구 송림동 294",
        "도로명 주소": "인천광역시 동구 방축로 83번길 23",
        "지리정보": {
            "latitude": "37.4859318",
            "longitude": "126.6550708"
        }
    },
    {
        "시장정보": "현대시장",
        "지번 주소": "인천광역시 동구 송림동 50-1",
        "도로명 주소": "인천광역시 동구 송림로109번길 21",
        "지리정보": {
            "latitude": "37.4774845",
            "longitude": "126.6461280"
        }
    },
    {
        "시장정보": "부평문화의거리",
        "지번 주소": "인천광역시 부평구 부평동 201의141",
        "도로명 주소": "인천광역시 부평구 부평문화로 78-2",
        "지리정보": {
            "latitude": "37.4940920",
            "longitude": "126.7250068"
        }
    },
    {
        "시장정보": "부평종합시장",
        "지번 주소": "인천광역시 부평구 부평동 360-1",
        "도로명 주소": "인천광역시 부평구 부흥로316번길 38-3",
        "지리정보": {
            "latitude": "37.4964937",
            "longitude": "126.7266115"
        }
    },
    {
        "시장정보": "연수구옥련시장",
        "지번 주소": "인천광역시 연수구 옥련동 462-32",
        "도로명 주소": "인천광역시 연수구 독배로 40번길 35",
        "지리정보": {
            "latitude": "37.4246306",
            "longitude": "126.6468131"
        }
    },
    {
        "시장정보": "인천종합어시장",
        "지번 주소": "인천광역시 중구 항동7가 27-69",
        "도로명 주소": "인천광역시 중구 연안부두로 33번길 37",
        "지리정보": {
            "latitude": "37.4541170",
            "longitude": "126.6065568"
        }
    },
    {
        "시장정보": "남광주시장",
        "지번 주소": "광주광역시 동구 학동 84-23",
        "도로명 주소": "광주광역시 동구 제봉로17번길 18-6",
        "지리정보": {
            "latitude": "35.1393148",
            "longitude": "126.9208190"
        }
    },
    {
        "시장정보": "대인시장",
        "지번 주소": "광주광역시 동구 대인동 310-8",
        "도로명 주소": "광주광역시 동구 제봉로194번길 7",
        "지리정보": {
            "latitude": "35.1540123",
            "longitude": "126.9165340"
        }
    },
    {
        "시장정보": "말바우시장",
        "지번 주소": "광주광역시 북구 우산동 190-1",
        "도로명 주소": "광주광역시 북구 동문대로97번길 55",
        "지리정보": {
            "latitude": "35.1729658",
            "longitude": "126.9213545"
        }
    },
    {
        "시장정보": "광주양동시장",
        "지번 주소": "광주광역시 서구 양동 5-101",
        "도로명 주소": "광주광역시 서구 천변좌로 238",
        "지리정보": {
            "latitude": "35.1542991",
            "longitude": "126.9020206"
        }
    },
    {
        "시장정보": "양동닭전길시장",
        "지번 주소": "광주광역시 서구 양동 5-56",
        "도로명 주소": "광주광역시 서구 천변좌로 262번길 4",
        "지리정보": {
            "latitude": "35.1527792",
            "longitude": "126.9040445"
        }
    },
    {
        "시장정보": "양동복개상가",
        "지번 주소": "광주광역시 서구 양동 441",
        "도로명 주소": "광주광역시 서구 천변좌로 243",
        "지리정보": {
            "latitude": "35.1523105",
            "longitude": "126.9056208"
        }
    },
    {
        "시장정보": "화정동서부시장",
        "지번 주소": "광주광역시 서구 화정동783의5",
        "도로명 주소": "광주광역시 서구 화운로156번길 24-1",
        "지리정보": {
            "latitude": "35.1531839",
            "longitude": "126.8799351"
        }
    },
    {
        "시장정보": "신탄진시장",
        "지번 주소": "대전광역시 대덕구 석봉동 417-43",
        "도로명 주소": "대전광역시 대덕구 석봉로43번길 37",
        "지리정보": {
            "latitude": "36.4491778",
            "longitude": "127.4265319"
        }
    },
    {
        "시장정보": "중리시장",
        "지번 주소": "대전광역시 대덕구 중리동 372-6",
        "도로명 주소": "대전광역시 대덕구 중리북로31번길 26",
        "지리정보": {
            "latitude": "36.3655880",
            "longitude": "127.4263908"
        }
    },
    {
        "시장정보": "중앙메가프라자",
        "지번 주소": "대전광역시 동구 원동 42-1",
        "도로명 주소": "대전광역시 동구 중앙로 200번길 99",
        "지리정보": {
            "latitude": "36.3267292",
            "longitude": "127.4339577"
        }
    },
    {
        "시장정보": "중앙상가시장",
        "지번 주소": "대전광역시 동구 중동 28-45",
        "도로명 주소": "대전광역시 동구 대전로791번길 38",
        "지리정보": {
            "latitude": "36.3296146",
            "longitude": "127.4311274"
        }
    },
    {
        "시장정보": "도마큰시장",
        "지번 주소": "대전광역시 서구 도마동 132-13",
        "도로명 주소": "대전광역시 서구 도마4길 71",
        "지리정보": {
            "latitude": "36.3158066",
            "longitude": "127.3813573"
        }
    },
    {
        "시장정보": "문창전통시장",
        "지번 주소": "대전광역시 중구 문창동 116-8",
        "도로명 주소": "대전광역시 중구 보문로 20번길 22",
        "지리정보": {
            "latitude": "36.3156358",
            "longitude": "127.4383064"
        }
    },
    {
        "시장정보": "신정상가시장",
        "지번 주소": "울산광역시 남구 신정동 616-1",
        "도로명 주소": "울산광역시 남구 월평로47번길 15",
        "지리정보": {
            "latitude": "35.5430040",
            "longitude": "129.3101138"
        }
    },
    {
        "시장정보": "울산산업공구월드",
        "지번 주소": "울산광역시 남구 삼산동 1591-4 울산산업공구월드",
        "도로명 주소": "울산광역시 남구 갈밭로 24(삼산동)",
        "지리정보": {
            "latitude": "35.5357751",
            "longitude": "129.3430999"
        }
    },
    {
        "시장정보": "월봉시장",
        "지번 주소": "울산광역시 동구 화정동 647-2",
        "도로명 주소": "울산광역시 동구 진성14길 94(전하동)",
        "지리정보": {
            "latitude": "35.4947956",
            "longitude": "129.4240623"
        }
    },
    {
        "시장정보": "울산시장",
        "지번 주소": "울산광역시 중구 학산동 47-10 신중앙시장",
        "도로명 주소": "울산광역시 중구 구교로 35",
        "지리정보": {
            "latitude": "35.5554642",
            "longitude": "129.3283860"
        }
    },
    {
        "시장정보": "중앙전통시장",
        "지번 주소": "울산광역시 중구 옥교동 275-4",
        "도로명 주소": "울산광역시 중구 중앙시장 2길(옥교동)",
        "지리정보": {
            "latitude": "35.5551805",
            "longitude": "129.3222916"
        }
    },
    {
        "시장정보": "태화종합시장",
        "지번 주소": "울산광역시 중구 태화동 22-27",
        "도로명 주소": "울산광역시 중구 화진1길 4(태화동)",
        "지리정보": {
            "latitude": "35.5562304",
            "longitude": "129.3073543"
        }
    },
    {
        "시장정보": "학성새벽시장",
        "지번 주소": "울산광역시 중구 학성동 359-2",
        "도로명 주소": "울산광역시 중구 새벽시장3길 20",
        "지리정보": {
            "latitude": "35.5564974",
            "longitude": "129.3328792"
        }
    },
    {
        "시장정보": "과천새서울프라자시장",
        "지번 주소": "경기도 과천시 별양동 1-18",
        "도로명 주소": "경기도 과천시 별양상가 2로 20",
        "지리정보": {
            "latitude": "37.4268373",
            "longitude": "126.9925741"
        }
    },
    {
        "시장정보": "광명전통시장",
        "지번 주소": "경기도 광명시 광명동 158-44",
        "도로명 주소": "경기도 광명시 광이로13번길 17-5",
        "지리정보": {
            "latitude": "37.4799556",
            "longitude": "126.8561762"
        }
    },
    {
        "시장정보": "구리전통시장",
        "지번 주소": "경기도 구리시 수택동 417",
        "도로명 주소": "경기도 구리시 검배로 6번길 31",
        "지리정보": {
            "latitude": "37.5995348",
            "longitude": "127.1399233"
        }
    },
    {
        "시장정보": "산본시장",
        "지번 주소": "경기도 군포시 산본동 221-5",
        "도로명 주소": "경기도 군포시 산본천로183번길 6, (산본동)",
        "지리정보": {
            "latitude": "37.3696911",
            "longitude": "126.9381124"
        }
    },
    {
        "시장정보": "남양주장현 전통시장",
        "지번 주소": "경기도 남양주시 장현리 380-15",
        "도로명 주소": "경기도 남양주시 진접읍 장현로 77의100",
        "지리정보": {
            "latitude": "37.7183750",
            "longitude": "127.1828263"
        }
    },
    {
        "시장정보": "세아프라자상가",
        "지번 주소": "경기도 동두천시 큰시장로 64",
        "도로명 주소": "경기도 동두천시 큰시장로 64",
        "지리정보": {
            "latitude": "37.9006861",
            "longitude": "127.0503172"
        }
    },
    {
        "시장정보": "중앙시장",
        "지번 주소": "경기도 동두천시 생연동 607-27",
        "도로명 주소": "경기도 동두천시 중앙로285번길 9",
        "지리정보": {
            "latitude": "37.9068890",
            "longitude": "127.0536876"
        }
    },
    {
        "시장정보": "부천자유시장",
        "지번 주소": "경기도 부천시 소사구 심곡본동 543",
        "도로명 주소": "경기도 부천시 소사구 자유로 33",
        "지리정보": {
            "latitude": "37.4839879",
            "longitude": "126.7799033"
        }
    },
    {
        "시장정보": "금호행복시장(금호시장)",
        "지번 주소": "경기도 성남시 분당구 수내동 32",
        "도로명 주소": "경기도 성남시 분당구 내정로 165번길 38",
        "지리정보": {
            "latitude": "37.3763473",
            "longitude": "127.1166857"
        }
    },
    {
        "시장정보": "상대원시장",
        "지번 주소": "경기도 성남시 중원구 상대원동 2985-1",
        "도로명 주소": "경기도 성남시 중원구 희망로344번길 6",
        "지리정보": {
            "latitude": "37.4359968",
            "longitude": "127.1587403"
        }
    },
    {
        "시장정보": "남문로데오시장",
        "지번 주소": "경기도 수원시 팔달구 교동 3-6",
        "도로명 주소": "경기도 수원시 팔달구 행궁로 88(교동)",
        "지리정보": {
            "latitude": "37.2747062",
            "longitude": "127.0154978"
        }
    },
    {
        "시장정보": "남문패션1번가시장",
        "지번 주소": "경기도 수원시 팔달구 영동 43-5",
        "도로명 주소": "경기도 수원시 팔달구 정조로758번길 24(영동)",
        "지리정보": {
            "latitude": "37.2756184",
            "longitude": "127.0181048"
        }
    },
    {
        "시장정보": "북수원시장",
        "지번 주소": "경기도 수원시 장안구 파장동 572-35",
        "도로명 주소": "경기도 수원시 장안구 파장로82번길 9(파장동)",
        "지리정보": {
            "latitude": "37.3070724",
            "longitude": "126.9921494"
        }
    },
    {
        "시장정보": "역전시장",
        "지번 주소": "경기도 수원시 팔달구 매산로1가 57-3",
        "도로명 주소": "경기도 수원시 팔달구 매산로 2-10(매산로1가)",
        "지리정보": {
            "latitude": "37.2661543",
            "longitude": "127.0024104"
        }
    },
    {
        "시장정보": "연무시장",
        "지번 주소": "경기도 수원시 장안구 연무동 249",
        "도로명 주소": "경기도 수원시 장안구 월드컵로428번길 10(연무동)",
        "지리정보": {
            "latitude": "37.2939838",
            "longitude": "127.0259698"
        }
    },
    {
        "시장정보": "영동시장",
        "지번 주소": "경기도 수원시 팔달구 영동 8",
        "도로명 주소": "경기도 수원시 팔달구 수원천로255번길 6(영동)",
        "지리정보": {
            "latitude": "37.2771731",
            "longitude": "127.0186010"
        }
    },
    {
        "시장정보": "정자시장",
        "지번 주소": "경기도 수원시 장안구 정자동 73-10",
        "도로명 주소": "경기도 수원시 장안구 수성로261번길 16(정자동)",
        "지리정보": {
            "latitude": "37.2907162",
            "longitude": "127.0009028"
        }
    },
    {
        "시장정보": "지동시장",
        "지번 주소": "경기도 수원시 팔달구 지동 402-2",
        "도로명 주소": "경기도 수원시 팔달구 팔달문로 19(지동)",
        "지리정보": {
            "latitude": "37.2779142",
            "longitude": "127.0195503"
        }
    },
    {
        "시장정보": "팔달문시장",
        "지번 주소": "경기도 수원시 팔달구 영동 6-14",
        "도로명 주소": "경기도 수원시 팔달구 정조로770번길 17(영동)",
        "지리정보": {
            "latitude": "37.2769114",
            "longitude": "127.0179044"
        }
    },
    {
        "시장정보": "화서시장",
        "지번 주소": "경기도 수원시 팔달구 화서동 97-1",
        "도로명 주소": "경기도 수원시 팔달구 동말로 72(화서동)",
        "지리정보": {
            "latitude": "37.2785663",
            "longitude": "127.0020792"
        }
    },
    {
        "시장정보": "시흥삼미시장",
        "지번 주소": "경기도 시흥시 신천동 738-4",
        "도로명 주소": "경기도 시흥시 삼미시장2길 35",
        "지리정보": {
            "latitude": "37.4404226",
            "longitude": "126.7837977"
        }
    },
    {
        "시장정보": "스타프라자전통시장",
        "지번 주소": "경기도 안산시 상록구 성포동 583",
        "도로명 주소": "경기도 안산시 상록구 화랑로 513",
        "지리정보": {
            "latitude": "37.3218116",
            "longitude": "126.8438680"
        }
    },
    {
        "시장정보": "안산시시민시장",
        "지번 주소": "경기도 안산시 단원구 초지동 604-4",
        "도로명 주소": "경기도 안산시 단원구 화랑로 149",
        "지리정보": {
            "latitude": "37.3251712",
            "longitude": "126.8053569"
        }
    },
    {
        "시장정보": "월드프라자",
        "지번 주소": "경기도 안산시 상록구 본오동 872",
        "도로명 주소": "경기도 안산시 상록구 본삼로 60",
        "지리정보": {
            "latitude": "37.2998508",
            "longitude": "126.8651151"
        }
    },
    {
        "시장정보": "안양남부시장",
        "지번 주소": "경기도 안양시 만안구 안양동 622-378",
        "도로명 주소": "경기도 안양시 만안구 장내로 140번길 51",
        "지리정보": {
            "latitude": "37.3959088",
            "longitude": "126.9249078"
        }
    },
    {
        "시장정보": "안양중앙인정시장",
        "지번 주소": "경기도 안양시 만안구 안양동 711-280",
        "도로명 주소": "경기도 안양시 만안구 냉천로185번길 8",
        "지리정보": {
            "latitude": "37.3964942",
            "longitude": "126.9195666"
        }
    },
    {
        "시장정보": "안양호계종합시장",
        "지번 주소": "경기도 안양시 동안구 호계1동 997",
        "도로명 주소": "경기도 안양시 동안구 흥안대로113번길 34",
        "지리정보": {
            "latitude": "37.3725663",
            "longitude": "126.9592493"
        }
    },
    {
        "시장정보": "중앙시장",
        "지번 주소": "경기도 안양시 만안구 안양4동 676-44",
        "도로명 주소": "경기도 안양시 만안구 냉천로 196",
        "지리정보": {
            "latitude": "37.3976163",
            "longitude": "126.9195769"
        }
    },
    {
        "시장정보": "용문천년시장",
        "지번 주소": "경기도 양평군 용문면 다문리 307-5 일원",
        "도로명 주소": "경기도 양평군 용문면 용문시장2길 11 일원",
        "지리정보": {
            "latitude": "37.4839234",
            "longitude": "127.5947999"
        }
    },
    {
        "시장정보": "오색시장",
        "지번 주소": "경기도 오산시 오산동 853-27",
        "도로명 주소": "경기도 오산시 오산로 272번길 21",
        "지리정보": {
            "latitude": "37.1513212",
            "longitude": "127.0709541"
        }
    },
    {
        "시장정보": "용인중앙시장",
        "지번 주소": "경기도 용인시 처인구 김량장동 137-1",
        "도로명 주소": "경기도 용인시 처인구 금령로107번길 13",
        "지리정보": {
            "latitude": "37.2367167",
            "longitude": "127.2078267"
        }
    },
    {
        "시장정보": "의정부제일시장",
        "지번 주소": "경기도 의정부시 의정부동 160",
        "도로명 주소": "경기도 의정부시 태평로 73번길 20",
        "지리정보": {
            "latitude": "37.7397875",
            "longitude": "127.0503897"
        }
    },
    {
        "시장정보": "중앙시장",
        "지번 주소": "경기도 평택시 중앙시장로 18-4",
        "도로명 주소": "경기도 평택시 중앙시장로 18-4",
        "지리정보": {
            "latitude": "37.0798881",
            "longitude": "127.0523670"
        }
    },
    {
        "시장정보": "통복시장",
        "지번 주소": "경기도 평택시 신장동 318-24",
        "도로명 주소": "경기도 평택시 동복시장로 25번길 10",
        "지리정보": {
            "latitude": "37.0798921",
            "longitude": "127.0523645"
        }
    },
    {
        "시장정보": "남양시장",
        "지번 주소": "경기도 화성시 남양리 1165-25",
        "도로명 주소": "경기도 화성시 남양읍 남양시장로 61일원",
        "지리정보": {
            "latitude": "37.2090159",
            "longitude": "126.8161026"
        }
    },
    {
        "시장정보": "발안시장",
        "지번 주소": "경기도 화성시 향남읍 평리 81-51",
        "도로명 주소": "경기도 화성시 향남읍 평2길 7",
        "지리정보": {
            "latitude": "37.1314652",
            "longitude": "126.9094670"
        }
    },
    {
        "시장정보": "사강시장",
        "지번 주소": "경기도 화성시 송산면 사강리 663-1",
        "도로명 주소": "경기도 화성시 송산면 사강로 183-1",
        "지리정보": {
            "latitude": "37.2132741",
            "longitude": "126.7364573"
        }
    },
    {
        "시장정보": "조암시장",
        "지번 주소": "경기도 화성시 우정읍 조암리 311-3",
        "도로명 주소": "경기도 화성시 우정읍 조암남로 8",
        "지리정보": {
            "latitude": "37.0823090",
            "longitude": "126.8171107"
        }
    },
    {
        "시장정보": "강릉동부시장",
        "지번 주소": "강원도 강릉시 옥천동 48",
        "도로명 주소": "강원도 강릉시 수문길19번옆길 12-1",
        "지리정보": {
            "latitude": "37.7557907",
            "longitude": "128.9020140"
        }
    },
    {
        "시장정보": "강릉서부시장",
        "지번 주소": "강원도 강릉시 용강동 29",
        "도로명 주소": "강원도 강릉시 임영로 155번길 6",
        "지리정보": {
            "latitude": "37.7550475",
            "longitude": "128.8908174"
        }
    },
    {
        "시장정보": "중앙시장",
        "지번 주소": "강원도 강릉시 성남동 50",
        "도로명 주소": "강원도 강릉시 금성로21",
        "지리정보": {
            "latitude": "37.7539963",
            "longitude": "128.8986308"
        }
    },
    {
        "시장정보": "동쪽바다중앙시장",
        "지번 주소": "강원도 동해시 발한동 7-1",
        "도로명 주소": "강원도 동해시 중앙시장길 12",
        "지리정보": {
            "latitude": "37.5510765",
            "longitude": "129.1085374"
        }
    },
    {
        "시장정보": "동해남부재래시장",
        "지번 주소": "강원도 동해시 동회동 442",
        "도로명 주소": "강원도 동해시 청운1길 29",
        "지리정보": {
            "latitude": "37.4873081",
            "longitude": "129.1057573"
        }
    },
    {
        "시장정보": "묵호시장",
        "지번 주소": "강원도 동해시묵호동 15-61",
        "도로명 주소": "강원도 동해시 일출로 59-1",
        "지리정보": {
            "latitude": "37.5523064",
            "longitude": "129.1141709"
        }
    },
    {
        "시장정보": "삼척중앙시장",
        "지번 주소": "강원도 삼척시 남양동 55-4",
        "도로명 주소": "강원도 삼척시 진주로 12-21",
        "지리정보": {
            "latitude": "37.4421156",
            "longitude": "129.1652466"
        }
    },
    {
        "시장정보": "속초종합중앙시장",
        "지번 주소": "강원도 속초시 중앙동 471-4",
        "도로명 주소": "강원도 속초시 중앙로147번길 16",
        "지리정보": {
            "latitude": "38.2045342",
            "longitude": "128.5902328"
        }
    },
    {
        "시장정보": "속초관광수산시장(구 속초중앙전통시장)",
        "지번 주소": "강원도 속초시 중앙동 493-3",
        "도로명 주소": "강원도 속초시 중앙시장로6길 2 외 127필지",
        "지리정보": {
            "latitude": "38.2054998",
            "longitude": "128.5893159"
        }
    },
    {
        "시장정보": "미로예술원주중앙시장(원주중앙시장)",
        "지번 주소": "강원도 원주시 중앙동 60-56",
        "도로명 주소": "강원도 원주시 중앙시장길 6",
        "지리정보": {
            "latitude": "37.3500295",
            "longitude": "127.9492388"
        }
    },
    {
        "시장정보": "원주남부시장",
        "지번 주소": "강원도 원주시 명륜동 26",
        "도로명 주소": "강원도 원주시 치악로 1803",
        "지리정보": {
            "latitude": "37.3430282",
            "longitude": "127.9544594"
        }
    },
    {
        "시장정보": "자유시장",
        "지번 주소": "강원도 원주시 중앙동 57",
        "도로명 주소": "강원도 원주시 중앙시장길 11",
        "지리정보": {
            "latitude": "37.3509072",
            "longitude": "127.9489227"
        }
    },
    {
        "시장정보": "정선아리랑시장",
        "지번 주소": "강원도 정선군 정선읍 봉양리 349-20",
        "도로명 주소": "강원도 정선군 정선읍 봉양7길 39",
        "지리정보": {
            "latitude": "37.3803925",
            "longitude": "128.6652348"
        }
    },
    {
        "시장정보": "제일종합시장",
        "지번 주소": "강원도 춘천시 죽림동 32",
        "도로명 주소": "강원도 춘천시 약사고개길13",
        "지리정보": {
            "latitude": "37.8775442",
            "longitude": "127.7261600"
        }
    },
    {
        "시장정보": "춘천서부시장",
        "지번 주소": "강원도 춘천시 소양로2가 172-1",
        "도로명 주소": "강원도 춘천시 서부대성로12",
        "지리정보": {
            "latitude": "37.8848162",
            "longitude": "127.7246419"
        }
    },
    {
        "시장정보": "춘천중앙시장",
        "지번 주소": "강원도 춘천시 중앙로2가 42-18",
        "도로명 주소": "강원도 춘천시 중앙로77번길 4-4",
        "지리정보": {
            "latitude": "37.8781406",
            "longitude": "127.7254226"
        }
    },
    {
        "시장정보": "괴산전통시장",
        "지번 주소": "충청북도 괴산군 괴산읍 동부리 560-1",
        "도로명 주소": "충청북도 괴산군 괴산읍 읍내로 15길8-8",
        "지리정보": {
            "latitude": "36.8111817",
            "longitude": "127.7949745"
        }
    },
    {
        "시장정보": "영동전통시장",
        "지번 주소": "충청북도 영동군 영동읍 계산리 694-13",
        "도로명 주소": "충청북도 영동군 영동읍 영산로1길 13-1",
        "지리정보": {
            "latitude": "36.1752033",
            "longitude": "127.7756070"
        }
    },
    {
        "시장정보": "음성시장",
        "지번 주소": "충청북도 음성군 음성읍 읍내리 249-11",
        "도로명 주소": "충청북도 음성군 음성읍 문화1길 14",
        "지리정보": {
            "latitude": "36.9381504",
            "longitude": "127.6920998"
        }
    },
    {
        "시장정보": "제천중앙시장",
        "지번 주소": "충청북도 제천시 중앙로1가 77",
        "도로명 주소": "충청북도 제천시 풍양로 108",
        "지리정보": {
            "latitude": "37.1366524",
            "longitude": "128.2113183"
        }
    },
    {
        "시장정보": "육거리종합시장",
        "지번 주소": "충청북도 청주시 상당구 석교동 60-4",
        "도로명 주소": "충청북도 청주시 상당구 청남로2197번길 42",
        "지리정보": {
            "latitude": "36.6279082",
            "longitude": "127.4884768"
        }
    },
    {
        "시장정보": "충주농산물종합시장(중앙청과시장)",
        "지번 주소": "충청북도 충주시 목행동 526-29",
        "도로명 주소": "충청북도 충주시 목행산단7로 24",
        "지리정보": {
            "latitude": "37.0043536",
            "longitude": "127.9229354"
        }
    },
    {
        "시장정보": "무학시장",
        "지번 주소": "충청북도 충주시 봉방동 8-6",
        "도로명 주소": "충청북도 충주시 무학1길 19",
        "지리정보": {
            "latitude": "36.9745864",
            "longitude": "127.9272825"
        }
    },
    {
        "시장정보": "충주자유시장",
        "지번 주소": "충청북도 충주시 충의동 192",
        "도로명 주소": "충청북도 충주시 충인6길 16",
        "지리정보": {
            "latitude": "36.9739264",
            "longitude": "127.9306850"
        }
    },
    {
        "시장정보": "성서중심시장(성서시장,문화의거리 통합)",
        "지번 주소": "충청북도 충주시 성서동 178",
        "도로명 주소": "충청북도 충주시 성서8길 21",
        "지리정보": {
            "latitude": "36.9713585",
            "longitude": "127.9323923"
        }
    },
    {
        "시장정보": "산성시장활성화구역",
        "지번 주소": "충청남도 공주시 중동 63",
        "도로명 주소": "충청남도 공주시 국고개길 11",
        "지리정보": {
            "latitude": "36.4548632",
            "longitude": "127.1257125"
        }
    },
    {
        "시장정보": "금산국제인삼시장(금산인삼국제시장)",
        "지번 주소": "충청남도 금산군 금산읍 중도리 8-1",
        "도로명 주소": "충청남도 금산군 금산읍 인삼약초로 45",
        "지리정보": {
            "latitude": "36.1017611",
            "longitude": "127.4983273"
        }
    },
    {
        "시장정보": "금산수삼센타",
        "지번 주소": "충청남도 금산군 금산읍 중도리 24",
        "도로명 주소": "충청남도 금산군 금산읍 인삼약초로 24",
        "지리정보": {
            "latitude": "36.1002586",
            "longitude": "127.4961424"
        }
    },
    {
        "시장정보": "화지중앙시장",
        "지번 주소": "충청남도 논산시 대교동 70-6",
        "도로명 주소": "충청남도 논산시 대화로 78",
        "지리정보": {
            "latitude": "36.2085148",
            "longitude": "127.0849542"
        }
    },
    {
        "시장정보": "당진전통시장",
        "지번 주소": "충청남도 당진시 읍내동 145-13",
        "도로명 주소": "충청남도 당진시 당진시장길 100",
        "지리정보": {
            "latitude": "36.8899236",
            "longitude": "126.6295955"
        }
    },
    {
        "시장정보": "서산동부전통시장(동부시장)",
        "지번 주소": "충청남도 서산시 동문동 900-3",
        "도로명 주소": "충청남도 서산시 시장5로 15",
        "지리정보": {
            "latitude": "36.7819352",
            "longitude": "126.4561472"
        }
    },
    {
        "시장정보": "서천특화시장",
        "지번 주소": "충청남도 서천군 서천읍 군사리 686-1",
        "도로명 주소": "충청남도 서천군 서천읍 충절로 42",
        "지리정보": {
            "latitude": "36.0748131",
            "longitude": "126.6873075"
        }
    },
    {
        "시장정보": "온양온천시장(온양전통시장)",
        "지번 주소": "충청남도 아산시 온천동 94-6",
        "도로명 주소": "충청남도 아산시 시장길 29",
        "지리정보": {
            "latitude": "36.7832307",
            "longitude": "127.0043717"
        }
    },
    {
        "시장정보": "천안중앙시장(구 남산중앙시장)",
        "지번 주소": "충청남도 천안시 동남구 사직동263 (사직2길 19)",
        "도로명 주소": "충청남도 천안시 동남구 사직로 7",
        "지리정보": {
            "latitude": "36.8002894",
            "longitude": "127.1486284"
        }
    },
    {
        "시장정보": "병천시장",
        "지번 주소": "충청남도 천안시 동남구 병천면 병천리 163-2",
        "도로명 주소": "충청남도 천안시 동남구 병천면 아우내장터1길 46",
        "지리정보": {
            "latitude": "36.7622009",
            "longitude": "127.2980418"
        }
    },
    {
        "시장정보": "광천전통시장",
        "지번 주소": "충청남도 홍성군 광천읍 광천리 230-32",
        "도로명 주소": "충청남도 홍성군 광천읍 광천로 285",
        "지리정보": {
            "latitude": "36.4998501",
            "longitude": "126.6252541"
        }
    },
    {
        "시장정보": "홍성전통시장",
        "지번 주소": "충청남도 홍성군 홍성읍 대교리 400-1",
        "도로명 주소": "충청남도 홍성군 홍성읍 홍성천길 242",
        "지리정보": {
            "latitude": "36.6021500",
            "longitude": "126.6681690"
        }
    },
    {
        "시장정보": "군산공설시장",
        "지번 주소": "전라북도 군산시 신영동 18-1",
        "도로명 주소": "전라북도 군산시 신금길 18",
        "지리정보": {
            "latitude": "35.9831811",
            "longitude": "126.7203122"
        }
    },
    {
        "시장정보": "군산수산물종합센터",
        "지번 주소": "전라북도 군산시 해망동 1011-21",
        "도로명 주소": "전라북도 군산시 내항2길 216",
        "지리정보": {
            "latitude": "35.9937211",
            "longitude": "126.7045276"
        }
    },
    {
        "시장정보": "순창시장",
        "지번 주소": "전라북도 순창군 순창읍 남계리 800",
        "도로명 주소": "전라북도 순창군 순창읍 남계로 58",
        "지리정보": {
            "latitude": "35.3718510",
            "longitude": "127.1450683"
        }
    },
    {
        "시장정보": "북부시장",
        "지번 주소": "전라북도 익산시 남중동 72-7",
        "도로명 주소": "전라북도 익산시 인북로 219",
        "지리정보": {
            "latitude": "35.9482335",
            "longitude": "126.9566474"
        }
    },
    {
        "시장정보": "익산장(익산북부장)",
        "지번 주소": "전라북도 익산시 남중동 35-9",
        "도로명 주소": "전라북도 익산시 인북로 11길 27",
        "지리정보": {
            "latitude": "35.9512330",
            "longitude": "126.9567754"
        }
    },
    {
        "시장정보": "모래내시장(전주)",
        "지번 주소": "전라북도 전주시 덕진구 인후동2가 203-10",
        "도로명 주소": "전라북도 전주시 덕진구 모래내4길 8-8",
        "지리정보": {
            "latitude": "35.8337067",
            "longitude": "127.1437562"
        }
    },
    {
        "시장정보": "전주남부시장",
        "지번 주소": "전라북도 전주시 완산구 전동 295-4",
        "도로명 주소": "전라북도 전주시 완산구 풍남문1길 19-3",
        "지리정보": {
            "latitude": "35.8128022",
            "longitude": "127.1475773"
        }
    },
    {
        "시장정보": "전주신중앙시장(신중앙시장)",
        "지번 주소": "전라북도 전주시 완산구 태평동 43",
        "도로명 주소": "전라북도 전주시 완산구 태평5길 33",
        "지리정보": {
            "latitude": "35.8238638",
            "longitude": "127.1431979"
        }
    },
    {
        "시장정보": "전주중앙상가",
        "지번 주소": "전라북도 전주시 완산구 태평동 36-1",
        "도로명 주소": "전라북도 전주시 완산구 태평3길 70",
        "지리정보": {
            "latitude": "35.8248012",
            "longitude": "127.1422621"
        }
    },
    {
        "시장정보": "서부시장상점가(서부시장 통합)",
        "지번 주소": "전라북도 전주시 완산구 효자동1가 201-63",
        "도로명 주소": "전라북도 전주시 완산구 효동 2길 14-8",
        "지리정보": {
            "latitude": "35.8052432",
            "longitude": "127.1266712"
        }
    },
    {
        "시장정보": "샘고을시장",
        "지번 주소": "전라북도 정읍시 시기동 280-4",
        "도로명 주소": "전라북도 정읍시 태평6길 25",
        "지리정보": {
            "latitude": "35.5630467",
            "longitude": "126.8550586"
        }
    },
    {
        "시장정보": "곡성기차마을전통시장",
        "지번 주소": "전라남도 곡성군 곡성읍 읍내리 208",
        "도로명 주소": "전라남도 곡성군 곡성로 856",
        "지리정보": {
            "latitude": "35.2800752",
            "longitude": "127.2993238"
        }
    },
    {
        "시장정보": "구례5일시장",
        "지번 주소": "전라남도 구례군 구례읍 봉동리 190-1",
        "도로명 주소": "전라남도 구례군 구례읍 5일시장작은길 20",
        "지리정보": {
            "latitude": "35.2107746",
            "longitude": "127.4698787"
        }
    },
    {
        "시장정보": "동부시장",
        "지번 주소": "전라남도 목포시 용당동 1053",
        "도로명 주소": "전라남도 목포시 영산로257번길 15",
        "지리정보": {
            "latitude": "34.8043886",
            "longitude": "126.3930638"
        }
    },
    {
        "시장정보": "자유시장",
        "지번 주소": "전라남도 목포시 산정동 1383",
        "도로명 주소": "전라남도 목포시 자유로 122",
        "지리정보": {
            "latitude": "34.7929630",
            "longitude": "126.4030689"
        }
    },
    {
        "시장정보": "청호시장",
        "지번 주소": "전라남도 목포시 석현동 1171",
        "도로명 주소": "전라남도 목포시 석현로 28",
        "지리정보": {
            "latitude": "34.8158436",
            "longitude": "126.4241404"
        }
    },
    {
        "시장정보": "순천시아랫장(순천아랫장)",
        "지번 주소": "전라남도 순천시 풍덕동 1264",
        "도로명 주소": "전라남도 순천시 장평로 60",
        "지리정보": {
            "latitude": "34.9453204",
            "longitude": "127.4953718"
        }
    },
    {
        "시장정보": "역전시장",
        "지번 주소": "전라남도 순천시 덕암동 227-1",
        "도로명 주소": "전라남도 순천시 역전장길 9",
        "지리정보": {
            "latitude": "34.9438210",
            "longitude": "127.5035021"
        }
    },
    {
        "시장정보": "웃장",
        "지번 주소": "전라남도 순천시 동외동 168-1",
        "도로명 주소": "전라남도 순천시 북문길 40",
        "지리정보": {
            "latitude": "34.9588094",
            "longitude": "127.4851996"
        }
    },
    {
        "시장정보": "(주)서시장",
        "지번 주소": "전라남도 여수시 서교동 280",
        "도로명 주소": "전라남도 여수시 좌수영로 16-6",
        "지리정보": {
            "latitude": "34.7417917",
            "longitude": "127.7286181"
        }
    },
    {
        "시장정보": "여수서시장주변시장",
        "지번 주소": "전라남도 여수시 서교동 534-20",
        "도로명 주소": "전라남도 여수시 서교2길 2-7",
        "지리정보": {
            "latitude": "34.7409549",
            "longitude": "127.7285855"
        }
    },
    {
        "시장정보": "여수수산물특화시장",
        "지번 주소": "전라남도 여수시 남산동 4",
        "도로명 주소": "전라남도 여수시 남산로 60-31",
        "지리정보": {
            "latitude": "34.7368724",
            "longitude": "127.7328415"
        }
    },
    {
        "시장정보": "해남읍5일시장",
        "지번 주소": "전라남도 해남군 해남읍 고도리 102-4",
        "도로명 주소": "전라남도 해남군 해남읍 중앙2로 76",
        "지리정보": {
            "latitude": "34.5688902",
            "longitude": "126.5971145"
        }
    },
    {
        "시장정보": "경산공설시장",
        "지번 주소": "경상북도 경산시 서상동 10",
        "도로명 주소": "경상북도 경산시 경안로31길 19",
        "지리정보": {
            "latitude": "35.8205010",
            "longitude": "128.7353729"
        }
    },
    {
        "시장정보": "경주성동공설시장",
        "지번 주소": "경상북도 경주시 성동동 51-1번지 일원",
        "도로명 주소": "경상북도 경주시 원화로 281번길 11-11",
        "지리정보": {
            "latitude": "35.8454311",
            "longitude": "129.2163007"
        }
    },
    {
        "시장정보": "경주중심상가시장",
        "지번 주소": "경상북도 경주시 황오동 234-1",
        "도로명 주소": "경상북도 경주시 태종로 791번길16",
        "지리정보": {
            "latitude": "35.8422468",
            "longitude": "129.2146788"
        }
    },
    {
        "시장정보": "경주중앙시장",
        "지번 주소": "경상북도 경주시 성건동 339-2",
        "도로명 주소": "경상북도 경주시 금성로 295",
        "지리정보": {
            "latitude": "35.8440274",
            "longitude": "129.2063261"
        }
    },
    {
        "시장정보": "안강공설시장",
        "지번 주소": "경상북도 경주시 안강읍 양월리 1350-1",
        "도로명 주소": "경상북도 경주시 안강읍 비화중로 3길 26-3",
        "지리정보": {
            "latitude": "35.9900129",
            "longitude": "129.2220917"
        }
    },
    {
        "시장정보": "제2경주중심상가시장",
        "지번 주소": "경상북도 경주시 노동동 230",
        "도로명 주소": "경상북도 경주시 원효로 89",
        "지리정보": {
            "latitude": "35.8421457",
            "longitude": "129.2106723"
        }
    },
    {
        "시장정보": "구미산업유통단지",
        "지번 주소": "경상북도 구미시 임수동 92-9",
        "도로명 주소": "경상북도 구미시 3공단1로 302-7",
        "지리정보": {
            "latitude": "36.1095575",
            "longitude": "128.4029964"
        }
    },
    {
        "시장정보": "구미새마을중앙시장",
        "지번 주소": "경상북도 구미시 원평동 117-20 외",
        "도로명 주소": "경상북도 구미시 구미중앙로9길 11",
        "지리정보": {
            "latitude": "36.1308217",
            "longitude": "128.3298591"
        }
    },
    {
        "시장정보": "금오시장",
        "지번 주소": "경상북도 구미시 원평동 1028-2",
        "도로명 주소": "경상북도 구미시 금오시장로13",
        "지리정보": {
            "latitude": "36.1262384",
            "longitude": "128.3406997"
        }
    },
    {
        "시장정보": "선산봉황시장",
        "지번 주소": "경상북도 구미시 선산읍 완전리 253",
        "도로명 주소": "경상북도 구미시 선산읍 단계동길 24",
        "지리정보": {
            "latitude": "36.2397549",
            "longitude": "128.3011306"
        }
    },
    {
        "시장정보": "황금시장",
        "지번 주소": "경상북도 김천시 황금동 31-1",
        "도로명 주소": "경상북도 김천시 황금시장4길20",
        "지리정보": {
            "latitude": "36.1166593",
            "longitude": "128.1253004"
        }
    },
    {
        "시장정보": "상주중앙시장",
        "지번 주소": "경상북도 상주시 남성동 85-10",
        "도로명 주소": "경상북도 상주시 남성로35",
        "지리정보": {
            "latitude": "36.4134119",
            "longitude": "128.1606967"
        }
    },
    {
        "시장정보": "안동구시장",
        "지번 주소": "경상북도 안동시 서부동 181-1",
        "도로명 주소": "경상북도 안동시 번영1길 55",
        "지리정보": {
            "latitude": "36.5657191",
            "longitude": "128.7279077"
        }
    },
    {
        "시장정보": "중앙신시장",
        "지번 주소": "경상북도 안동시 옥야동 285-1",
        "도로명 주소": "경상북도 안동시 대안로98-15",
        "지리정보": {
            "latitude": "36.5650969",
            "longitude": "128.7241976"
        }
    },
    {
        "시장정보": "영주문화시장",
        "지번 주소": "경상북도 영주시 영주동 376-1",
        "도로명 주소": "경상북도 영주시 중앙로 83번길 32",
        "지리정보": {
            "latitude": "36.8240502",
            "longitude": "128.6235621"
        }
    },
    {
        "시장정보": "영천공설시장",
        "지번 주소": "경상북도 영천시  완산동 982-3",
        "도로명 주소": "경상북도 영천시 시장4길 52",
        "지리정보": {
            "latitude": "35.9642157",
            "longitude": "128.9385221"
        }
    },
    {
        "시장정보": "울진바지게시장",
        "지번 주소": "경상북도 울진군 울진읍 읍내리 63",
        "도로명 주소": "경상북도 울진군 울진읍 읍내2길 13-6",
        "지리정보": {
            "latitude": "36.9913194",
            "longitude": "129.4020471"
        }
    },
    {
        "시장정보": "청도공설시장",
        "지번 주소": "경상북도 청도군 청도읍 고수리 785-3",
        "도로명 주소": "경상북도 청도군 청도읍 청화로 175",
        "지리정보": {
            "latitude": "35.6428960",
            "longitude": "128.7444572"
        }
    },
    {
        "시장정보": "영일대북부시장",
        "지번 주소": "경상북도 포항시 북구 대신동 63-16",
        "도로명 주소": "경상북도 포항시 북구 대신로26번길 10-1",
        "지리정보": {
            "latitude": "36.0466285",
            "longitude": "129.3689216"
        }
    },
    {
        "시장정보": "죽도농산물시장",
        "지번 주소": "경상북도 포항시 죽도동 5-22",
        "도로명 주소": "경상북도 포항시 죽도시장2길 18",
        "지리정보": {
            "latitude": "36.0345826",
            "longitude": "129.3679703"
        }
    },
    {
        "시장정보": "죽도시장",
        "지번 주소": "경상북도 포항시 북구 죽도동 2번지일대",
        "도로명 주소": "경상북도 포항시 북구 죽도시장13길 13",
        "지리정보": {
            "latitude": "36.0357789",
            "longitude": "129.3669813"
        }
    },
    {
        "시장정보": "죽도어시장",
        "지번 주소": "경상북도 포항시 북구 죽도동 574-4",
        "도로명 주소": "경상북도 포항시 북구 죽도시장길32",
        "지리정보": {
            "latitude": "36.0351510",
            "longitude": "129.3690290"
        }
    },
    {
        "시장정보": "중앙상가",
        "지번 주소": "경상북도 포항시 북구 상원동 468-23",
        "도로명 주소": "경상북도 포항시 북구 중앙상가길64",
        "지리정보": {
            "latitude": "36.0401465",
            "longitude": "129.3661482"
        }
    },
    {
        "시장정보": "효자시장",
        "지번 주소": "경상북도 포항시 남구 효자동 301-1",
        "도로명 주소": "경상북도 포항시 남구 효자동길10번길 13",
        "지리정보": {
            "latitude": "36.0079908",
            "longitude": "129.3315903"
        }
    },
    {
        "시장정보": "흥해시장",
        "지번 주소": "경상북도 포항시 북구 흥해읍 성내리 61-2",
        "도로명 주소": "경상북도 포항시 북구 흥해읍 한동로 61-13",
        "지리정보": {
            "latitude": "36.1106080",
            "longitude": "129.3483563"
        }
    },
    {
        "시장정보": "거제고현시장",
        "지번 주소": "경상남도 거제시 고현동 98-27",
        "도로명 주소": "경상남도 거제시 중앙로 1883-2",
        "지리정보": {
            "latitude": "34.8862676",
            "longitude": "128.6236348"
        }
    },
    {
        "시장정보": "거창시장",
        "지번 주소": "경상남도 거창군 중앙리 154-12",
        "도로명 주소": "경상남도 거창군 거창읍 중앙로 140",
        "지리정보": {
            "latitude": "35.6858378",
            "longitude": "127.9135325"
        }
    },
    {
        "시장정보": "고성시장",
        "지번 주소": "경상남도 고성군 고성읍 서외리 1-6",
        "도로명 주소": "경상남도 고성군 고성읍 중앙로25번길57",
        "지리정보": {
            "latitude": "34.9771324",
            "longitude": "128.3230351"
        }
    },
    {
        "시장정보": "김해전통시장(김해동상시장)",
        "지번 주소": "경상남도 김해시 동상동 877-2",
        "도로명 주소": "경상남도 김해시 호계로 517번길 5-13",
        "지리정보": {
            "latitude": "35.2362459",
            "longitude": "128.8838528"
        }
    },
    {
        "시장정보": "삼천포용궁수산시장",
        "지번 주소": "경상남도 사천시 동동 485-2",
        "도로명 주소": "경상남도 사천시 어시장길 64",
        "지리정보": {
            "latitude": "34.9274576",
            "longitude": "128.0704854"
        }
    },
    {
        "시장정보": "삼천포종합시장",
        "지번 주소": "경상남도 사천시 동금동88-4",
        "도로명 주소": "경상남도 사천시 동금2길 15",
        "지리정보": {
            "latitude": "34.9321224",
            "longitude": "128.0786584"
        }
    },
    {
        "시장정보": "삼천포중앙시장",
        "지번 주소": "경상남도 사천시 선구동17-4",
        "도로명 주소": "경상남도 사천시 중앙시장2길 37",
        "지리정보": {
            "latitude": "34.9291969",
            "longitude": "128.0768116"
        }
    },
    {
        "시장정보": "양산남부시장",
        "지번 주소": "경상남도 양산시 중부동 423-5",
        "도로명 주소": "경상남도 양산시 중앙로 133번지",
        "지리정보": {
            "latitude": "35.3428196",
            "longitude": "129.0372106"
        }
    },
    {
        "시장정보": "이현종합상가",
        "지번 주소": "경상남도 진주시 이현동 21-3",
        "도로명 주소": "경상남도 진주시 신안로 165",
        "지리정보": {
            "latitude": "35.1919877",
            "longitude": "128.0661319"
        }
    },
    {
        "시장정보": "진주동성상가",
        "지번 주소": "경상남도 진주시 강남동 219",
        "도로명 주소": "경상남도 진주시 진주대로 901",
        "지리정보": {
            "latitude": "35.1809127",
            "longitude": "128.0893555"
        }
    },
    {
        "시장정보": "진주논개시장(장대시장)",
        "지번 주소": "경상남도 진주시 장대동 58-8",
        "도로명 주소": "경상남도 진주시 진양호로569번길 12",
        "지리정보": {
            "latitude": "35.1950662",
            "longitude": "128.0872410"
        }
    },
    {
        "시장정보": "진주중앙시장",
        "지번 주소": "경상남도 진주시 대안동 8-600",
        "도로명 주소": "경상남도 진주시 진양호로547번길 8-1 일원",
        "지리정보": {
            "latitude": "35.1939107",
            "longitude": "128.0848764"
        }
    },
    {
        "시장정보": "가음정시장",
        "지번 주소": "경상남도 창원시 성산구 가음동 21-20",
        "도로명 주소": "경상남도 창원시 성산구 원이대로863번길24",
        "지리정보": {
            "latitude": "35.2079585",
            "longitude": "128.6970839"
        }
    },
    {
        "시장정보": "기산프라자",
        "지번 주소": "경상남도 창원시 오동동 18-61",
        "도로명 주소": "경상남도 창원시 오동동14길 29",
        "지리정보": {
            "latitude": "35.2052720",
            "longitude": "128.5808028"
        }
    },
    {
        "시장정보": "마산수산시장",
        "지번 주소": "경상남도 창원시 마산합포구 남성동 229-1",
        "도로명 주소": "경상남도 창원시 마산합포구 수산2길 194",
        "지리정보": {
            "latitude": "35.2020425",
            "longitude": "128.5792389"
        }
    },
    {
        "시장정보": "마산어시장",
        "지번 주소": "경상남도 창원시 마산합포구 동성동 314",
        "도로명 주소": "경상남도 창원시 마산합포구 복요리로 7",
        "지리정보": {
            "latitude": "35.2037654",
            "longitude": "128.5789600"
        }
    },
    {
        "시장정보": "명서시장",
        "지번 주소": "경상남도 창원시 명서동 45-10",
        "도로명 주소": "경상남도 창원시 의창구 원이대로 189번길 20",
        "지리정보": {
            "latitude": "35.2486320",
            "longitude": "128.6447629"
        }
    },
    {
        "시장정보": "부림시장",
        "지번 주소": "경상남도 창원시 마산합포구 부림동 32",
        "도로명 주소": "경상남도 창원시 마산함포구 3·15대로 352",
        "지리정보": {
            "latitude": "35.2061873",
            "longitude": "128.5734926"
        }
    },
    {
        "시장정보": "북마산중앙시장",
        "지번 주소": "경상남도 창원시 마산합포구 상남동 40-1",
        "도로명 주소": "경상남도 창원시 마산합포구 상남시장로3",
        "지리정보": {
            "latitude": "35.2160702",
            "longitude": "128.5711621"
        }
    },
    {
        "시장정보": "상남시장",
        "지번 주소": "경상남도 창원시 성산구 상남동 16",
        "도로명 주소": "경상남도 창원시 성산구 마디미로28",
        "지리정보": {
            "latitude": "35.2222080",
            "longitude": "128.6833608"
        }
    },
    {
        "시장정보": "성원그랜드쇼핑상가",
        "지번 주소": "경상남도 창원시 성산구 상남동 45-1",
        "도로명 주소": "경상남도 창원시 성산구 동산로 124",
        "지리정보": {
            "latitude": "35.2166948",
            "longitude": "128.6920668"
        }
    },
    {
        "시장정보": "중앙시장(창원중앙시장)",
        "지번 주소": "경상남도 창원시 성산구 중앙동 8-10",
        "도로명 주소": "경상남도 창원시 성산구 외동반림로 126길50",
        "지리정보": {
            "latitude": "35.2301797",
            "longitude": "128.6719471"
        }
    },
    {
        "시장정보": "창원기계공구상가",
        "지번 주소": "경상남도 창원시 팔용동 16-1",
        "도로명 주소": "경상남도 창원시 의창구 창원대로 400",
        "지리정보": {
            "latitude": "35.2339601",
            "longitude": "128.6409874"
        }
    },
    {
        "시장정보": "창원코아상가",
        "지번 주소": "경상남도 창원시 성산구 상남동 73-4",
        "도로명 주소": "경상남도 창원시 성산구 상남로 71",
        "지리정보": {
            "latitude": "35.2204845",
            "longitude": "128.6794787"
        }
    },
    {
        "시장정보": "서호전통시장",
        "지번 주소": "경상남도 통영시 서호동 163-42",
        "도로명 주소": "경상남도 통영시 새터길 58-9",
        "지리정보": {
            "latitude": "34.8413615",
            "longitude": "128.4201033"
        }
    },
    {
        "시장정보": "통영중앙전통시장",
        "지번 주소": "경상남도 통영시 중앙동 38-4",
        "도로명 주소": "경상남도 통영시 중앙시장1길14-16",
        "지리정보": {
            "latitude": "34.8452887",
            "longitude": "128.4246418"
        }
    },
    {
        "시장정보": "하동공설시장",
        "지번 주소": "경상남도 하동군 하동읍 읍내리 258-1",
        "도로명 주소": "경상남도 하동군 하동읍 시장 1길 12-2",
        "지리정보": {
            "latitude": "35.0700180",
            "longitude": "127.7483845"
        }
    },
    {
        "시장정보": "대정오일시장",
        "지번 주소": "제주특별자치도 서귀포시 대정읍 하모리 1089-15",
        "도로명 주소": "제주특별자치도 서귀포시 대정읍 신영로36번길 65",
        "지리정보": {
            "latitude": "33.2204752",
            "longitude": "126.2483442"
        }
    },
    {
        "시장정보": "서귀포매일올레시장",
        "지번 주소": "제주특별자치도 서귀포시 서귀동 277-1",
        "도로명 주소": "제주특별자치도 서귀포시 중앙로 62번길 18",
        "지리정보": {
            "latitude": "33.2501558",
            "longitude": "126.5633939"
        }
    },
    {
        "시장정보": "서귀포향토오일시장",
        "지번 주소": "제주특별자치도 서귀포시 동홍동 779-1",
        "도로명 주소": "제주특별자치도 서귀포시 토평서로11번길 142",
        "지리정보": {
            "latitude": "33.2671342",
            "longitude": "126.5729976"
        }
    },
    {
        "시장정보": "세화오일시장",
        "지번 주소": "제주특별자치도 제주시 구좌읍 세화리 1500-5",
        "도로명 주소": "제주특별자치도 제주시 구좌읍 해맞이해안로 1412",
        "지리정보": {
            "latitude": "33.5259977",
            "longitude": "126.8573711"
        }
    },
    {
        "시장정보": "제주시동문재래시장",
        "지번 주소": "제주특별자치도 제주시 이도1동 1436-7",
        "도로명 주소": "제주특별자치도 제주시 관덕로14길 20",
        "지리정보": {
            "latitude": "33.5115857",
            "longitude": "126.5260062"
        }
    },
    {
        "시장정보": "제주시민속오일시장",
        "지번 주소": "제주특별자치도 제주시 도두1동 1212",
        "도로명 주소": "제주특별자치도 제주시 오일장서길 26",
        "지리정보": {
            "latitude": "33.4965660",
            "longitude": "126.4745766"
        }
    },
    {
        "시장정보": "제주칠성로상점가(칠성로상점가)",
        "지번 주소": "제주특별자치도 제주시 일도1동 1476-20",
        "도로명 주소": "제주특별자치도 제주시 관덕로 13길 12",
        "지리정보": {
            "latitude": "33.5140785",
            "longitude": "126.5261396"
        }
    },
    {
        "시장정보": "세종전통시장",
        "지번 주소": "세종특별자치시 조치원읍 정리 19-1",
        "도로명 주소": "세종특별자치시 조치원읍 조치원8길 42",
        "지리정보": {
            "latitude": "36.5997706",
            "longitude": "127.3005918"
        }
    },
    {
        "시장정보": "대명여울빛거리시장",
        "지번 주소": "서울특별시 금천구 시흥동 889-13",
        "도로명 주소": "서울특별시 금천구 시흥대로 212(시흥동)",
        "지리정보": {
            "latitude": "37.4527949",
            "longitude": "126.9016716"
        }
    },
    {
        "시장정보": "남동산업용품상가",
        "지번 주소": "인천광역시 남동구 고잔동 630",
        "도로명 주소": "인천광역시 남동구 은청로4-7",
        "지리정보": {
            "latitude": "37.4070657",
            "longitude": "126.6935078"
        }
    },
    {
        "시장정보": "여주한글시장(여주중앙로상점가)",
        "지번 주소": "경기도 여주시 하동 268-4",
        "도로명 주소": "경기도 여주시 세종로14번길 24-1",
        "지리정보": {
            "latitude": "37.2975390",
            "longitude": "127.6343007"
        }
    },
    {
        "시장정보": "진주청과시장",
        "지번 주소": "경상남도 진주시 수정동 25-28",
        "도로명 주소": "경상남도 진주시 촉석로 226번길 3",
        "지리정보": {
            "latitude": "35.1962454",
            "longitude": "128.0866682"
        }
    },
    {
        "시장정보": "광천원동시장",
        "지번 주소": "충청남도 홍성군 광천읍 광천리 185-27",
        "도로명 주소": "충청남도 홍성군 광천읍 광천로323번길 15-1 일원",
        "지리정보": {
            "latitude": "36.5023279",
            "longitude": "126.6250050"
        }
    },
    {
        "시장정보": "안산 다농마트 전통시장",
        "지번 주소": "경기도 안산시 상록구 월피동 445-1",
        "도로명 주소": "경기도 안산시 상록구 예술광장로 1",
        "지리정보": {
            "latitude": "37.3283537",
            "longitude": "126.8444190"
        }
    },
    {
        "시장정보": "청계상가",
        "지번 주소": "서울특별시 중구 산림동 207-1",
        "도로명 주소": "서울특별시 중구 청계천로 160",
        "지리정보": {
            "latitude": "37.5680551",
            "longitude": "126.9953665"
        }
    },
    {
        "시장정보": "오이도전통수산시장",
        "지번 주소": "경기도 시흥시 정왕동 2003-8,2003-12",
        "도로명 주소": "경기도 시흥시 오이도로 167,173",
        "지리정보": {
            "latitude": "37.3458715",
            "longitude": "126.6882306"
        }
    },
    {
        "시장정보": "문화의거리 행복상점가",
        "지번 주소": "경상북도 문경시 점촌동 249-15",
        "도로명 주소": "경상북도 문경시 점촌5길 8-1",
        "지리정보": {
            "latitude": "36.5966792",
            "longitude": "128.1992626"
        }
    },
    {
        "시장정보": "점촌역전상점가",
        "지번 주소": "경상북도 문경시 점촌동 166-6",
        "도로명 주소": "경상북도 문경시 신흥로 165",
        "지리정보": {
            "latitude": "36.5957890",
            "longitude": "128.2023621"
        }
    },
    {
        "시장정보": "소래포구전통어시장",
        "지번 주소": "인천광역시 남동구 논현동 111-168",
        "도로명 주소": "인천광역시 남동구 장도로 86-17",
        "지리정보": {
            "latitude": "37.3979452",
            "longitude": "126.7392917"
        }
    },
    {
        "시장정보": "중부시장",
        "지번 주소": "서울특별시 중구 오장동 139-11",
        "도로명 주소": "서울특별시 중구 을지로36길 35(오장동)",
        "지리정보": {
            "latitude": "37.5649746",
            "longitude": "127.0018237"
        }
    },
    {
        "시장정보": "테크노상가",
        "지번 주소": "서울특별시 중구 신당동 213-51 엠씨프라자",
        "도로명 주소": "서울특별시 중구 마장로1가길 17 테크노상가",
        "지리정보": {
            "latitude": "37.5688793",
            "longitude": "127.0132966"
        }
    },
    {
        "시장정보": "연수상가",
        "지번 주소": "충청북도 충주시 연수동 522-1",
        "도로명 주소": "충청북도 충주시 예성로 319",
        "지리정보": {
            "latitude": "36.9847708",
            "longitude": "127.9332417"
        }
    },
    {
        "시장정보": "공주산성시장",
        "지번 주소": "충청남도 공주시 산성동 190-1",
        "도로명 주소": "충청남도 공주시 용당길 22",
        "지리정보": {
            "latitude": "36.4590854",
            "longitude": "127.1227598"
        }
    },
    {
        "시장정보": "영등포유통상가",
        "지번 주소": "서울특별시 영등포구 당산동2가 30-2 5층 영등포유통상가",
        "도로명 주소": "서울특별시 영등포구 영등포로 109(당산동2가)",
        "지리정보": {
            "latitude": "37.5224790",
            "longitude": "126.8939771"
        }
    },
    {
        "시장정보": "고려쇼핑센터",
        "지번 주소": "부산광역시 사상구 괘법동 535-11",
        "도로명 주소": "부산광역시 사상구 사상로 207",
        "지리정보": {
            "latitude": "35.1636280",
            "longitude": "128.9841832"
        }
    }
]